City_ID,City,Lat,Lng,Max Temp,Humidity,Cloudiness,Wind Speed,Country,Date
0,edinburgh of the seven seas,-37.0676,-12.3116,13.99,70,35,4.41,SH,1734335112
1,whitehorse,60.7161,-135.0538,-12.57,84,75,6.71,CA,1734334533
2,waitangi,-43.9535,-176.5597,16.57,96,100,1.79,NZ,1734335114
3,lashio,22.9333,97.75,25.05,46,0,1.39,MM,1734335115
4,nishinoomote,30.7333,131.0,12.31,66,75,5.14,JP,1734335116
5,ribeira grande,38.5167,-28.7,17.22,88,75,3.09,PT,1734335117
6,georgetown,5.4112,100.3354,30.97,67,20,3.09,MY,1734335119
7,anadyr,64.75,177.4833,-6.72,79,100,8.0,RU,1734335120
8,ngorongoro,-3.2397,35.4875,20.11,57,74,1.11,TZ,1734335121
9,ta`u,-14.2336,-169.5144,26.53,81,20,3.37,AS,1734335122
10,turuntayevo,52.2,107.6167,-9.55,96,25,0.29,RU,1734335123
11,moab,38.5733,-109.5498,1.38,43,4,0.91,US,1734334831
12,uturoa,-16.7333,-151.4333,26.59,80,100,4.28,PF,1734335125
13,yasuj,30.6682,51.588,1.75,48,0,0.0,IR,1734335126
14,adamstown,-25.066,-130.1015,22.24,69,35,2.7,PN,1734335127
15,college,64.8569,-147.8028,-21.97,80,100,2.06,US,1734334983
16,grytviken,-54.2811,-36.5092,3.61,74,100,1.78,GS,1734335130
17,yellowknife,62.456,-114.3525,-21.71,77,100,4.12,CA,1734335080
18,kaoma,-14.7833,24.8,30.22,39,12,4.09,ZM,1734335132
19,jamestown,42.097,-79.2353,2.23,98,100,2.68,US,1734335133
20,iqaluit,63.7506,-68.5145,-13.15,78,100,10.29,CA,1734335134
21,puerto armuelles,8.2833,-82.8667,22.27,88,35,1.34,PA,1734335135
22,tamanrasset,22.785,5.5228,13.95,10,0,2.57,DZ,1734335136
23,derzhavinsk,51.1,66.3167,-8.39,91,100,9.65,KZ,1734335137
24,lebu,-37.6167,-73.65,13.01,89,100,3.95,CL,1734335138
25,sarmiento,-45.5882,-69.07,19.09,38,63,1.27,AR,1734335141
26,katsuura,35.1333,140.3,10.67,60,64,4.31,JP,1734335142
27,sola,-13.8833,167.55,27.51,80,100,4.53,VU,1734335143
28,sosnovo-ozerskoye,52.5249,111.5418,-20.24,99,5,1.17,RU,1734335144
29,ushuaia,-54.8,-68.3,6.81,57,0,4.12,AR,1734334962
30,chonchi,-42.6128,-73.8092,11.18,92,28,0.98,CL,1734335146
31,gbadolite,4.2833,21.0167,31.35,29,100,2.58,CD,1734335147
32,ust-nera,64.5667,143.2,-28.37,96,96,1.64,RU,1734335148
33,strathalbyn,-35.2667,138.9,25.47,57,94,6.5,AU,1734335149
34,tiksi,71.6872,128.8694,-21.89,99,100,3.2,RU,1734335150
35,piacabucu,-10.4056,-36.4344,24.57,91,60,2.7,BR,1734335152
36,cole harbour,44.6724,-63.4751,-4.48,81,11,2.92,CA,1734335153
37,mata-utu,-13.2816,-176.1745,27.77,73,17,1.24,WF,1734335154
38,haiku-pauwela,20.9219,-156.3051,22.36,71,40,4.63,US,1734335156
39,bikin,46.8161,134.26,-18.62,92,78,1.56,RU,1734335157
40,pyrgos,37.6751,21.441,12.22,67,0,1.48,GR,1734335158
41,margate,51.3813,1.3862,9.93,82,98,0.45,GB,1734335159
42,launceston,-41.45,147.1667,27.8,54,50,5.14,AU,1734335049
43,polyarnyy,69.1989,33.4478,-13.52,79,100,4.86,RU,1734335162
44,tura,25.5198,90.2201,25.51,27,0,1.93,IN,1734335163
45,codrington,-38.2667,141.9667,19.37,75,93,7.39,AU,1734335164
46,happy valley-goose bay,53.3168,-60.3315,-2.83,50,75,5.66,CA,1734335165
47,albany,42.6001,-73.9662,0.15,77,100,0.89,US,1734335166
48,susuman,62.7833,148.1667,-28.99,99,79,1.22,RU,1734335167
49,flying fish cove,-10.4217,105.6791,29.82,74,20,3.6,CX,1734335168
50,port-aux-francais,-49.35,70.2167,4.87,77,10,12.69,TF,1734335169
51,celeyke,38.0597,37.1879,0.12,79,100,1.74,TR,1734335170
52,llallagua,-18.4167,-66.6333,6.93,71,100,2.3,BO,1734335172
53,st. john's,47.5649,-52.7093,-1.13,85,75,5.66,CA,1734335173
54,chignahuapan,19.8333,-98.0333,7.13,96,24,0.65,MX,1734335174
55,port mathurin,-19.6833,63.4167,25.58,72,40,7.06,MU,1734335175
56,cozumel,20.5083,-86.9458,23.3,88,1,4.05,MX,1734335176
57,port augusta,-32.5,137.7667,27.19,60,94,9.66,AU,1734335177
58,vernon,50.2581,-119.2691,0.74,86,29,3.6,CA,1734335152
59,korla,41.7597,86.1469,-5.5,72,100,4.3,CN,1734335179
60,olonkinbyen,70.9221,-8.7187,-1.51,81,100,7.93,SJ,1734335180
61,kapuskasing,49.4169,-82.4331,-1.95,93,100,4.63,CA,1734335181
62,banda aceh,5.5577,95.3222,28.57,76,100,3.38,ID,1734335183
63,ferkessedougou,9.6,-5.2,22.64,15,0,2.42,CI,1734335185
64,carnarvon,-24.8667,113.6333,28.18,48,0,9.8,AU,1734335186
65,puerto natales,-51.7236,-72.4875,9.47,96,100,1.64,CL,1734335187
66,ha tinh,18.3333,105.9,16.35,70,80,3.04,VN,1734335188
67,ambon,-3.6954,128.1814,31.24,100,40,1.03,ID,1734335189
68,iskateley,67.6803,53.1512,-20.4,87,34,5.35,RU,1734335190
69,nemuro,43.3236,145.575,-2.78,49,99,3.17,JP,1734335191
70,el calafate,-50.3408,-72.2768,10.79,82,62,1.26,AR,1734335192
71,arraial do cabo,-22.9661,-42.0278,24.6,80,0,5.73,BR,1734335194
72,thompson,55.7435,-97.8558,-13.91,85,100,6.17,CA,1734335195
73,papatowai,-46.5619,169.4708,8.5,73,27,2.5,NZ,1734335196
74,blackmans bay,-43.0167,147.3167,30.07,42,32,3.86,AU,1734335197
75,santa elena de uairen,4.6167,-61.1333,19.46,86,97,1.87,VE,1734335198
76,paphos,34.7667,32.4167,17.88,59,40,3.6,CY,1734335199
77,praia da vitoria,38.7333,-27.0667,16.14,94,20,1.59,PT,1734335200
78,nar'yan-mar,67.6713,53.087,-20.44,87,33,5.34,RU,1734335203
79,vilyuchinsk,52.9306,158.4028,-3.85,79,100,4.99,RU,1734335204
80,klaksvik,62.2266,-6.589,6.14,74,100,13.51,FO,1734335205
81,wailua homesteads,22.0669,-159.378,23.44,93,100,4.12,US,1734335047
82,ayas,40.0193,32.3322,1.12,100,100,1.22,TR,1734335207
83,briare,47.6334,2.7438,6.45,97,90,2.75,FR,1734335208
84,wulingyuan,29.3494,110.5441,10.88,47,0,1.54,CN,1734335209
85,bethel,41.3712,-73.414,0.9,85,100,0.45,US,1734335210
86,tome,-36.6167,-72.95,13.34,94,45,0.83,CL,1734335211
87,palmer,42.1584,-72.3287,-0.83,68,100,2.06,US,1734335213
88,sitka,57.0531,-135.33,0.94,80,0,0.0,US,1734335214
89,hawaiian paradise park,19.5933,-154.9731,21.61,96,0,0.0,US,1734335215
90,port lincoln,-34.7333,135.8667,20.48,66,0,8.82,AU,1734335217
91,laojunmiao,39.8333,97.7333,-1.79,52,0,1.46,CN,1734335218
92,lompoc,34.6391,-120.4579,8.4,100,0,4.12,US,1734335219
93,labrador city,52.9463,-66.9114,-7.68,56,100,8.05,CA,1734335220
94,cadale,2.7603,46.3222,29.37,56,11,9.73,SO,1734335222
95,pangody,65.85,74.4859,-16.63,88,100,7.93,RU,1734335223
96,saldanha,-33.0117,17.9442,18.03,54,85,4.61,ZA,1734335224
97,nantucket,41.2835,-70.0995,3.97,75,0,3.88,US,1734335225
98,hithadhoo,-0.6,73.0833,27.97,79,69,6.43,MV,1734335226
99,margaret river,-33.95,115.0667,18.45,56,1,5.78,AU,1734335227
100,petropavlovsk-kamchatsky,53.0452,158.6483,-4.67,46,75,1.0,RU,1734335228
101,west island,-12.1568,96.8225,27.99,83,100,4.12,CC,1734335229
102,mesudiye,40.4625,37.7725,-1.33,95,100,1.76,TR,1734335230
103,road town,18.4167,-64.6167,26.09,72,0,3.39,VG,1734335231
104,gaspe,48.8334,-64.4819,-8.88,79,0,1.54,CA,1734335232
105,tarnogskiy gorodok,60.4997,43.5761,-12.75,96,100,1.7,RU,1734335234
106,ancud,-41.8697,-73.8203,11.11,91,0,0.67,CL,1734335235
107,el hamma,33.8915,9.7963,7.62,61,0,7.05,TN,1734335236
108,laguna,38.421,-121.4238,8.36,93,75,2.57,US,1734335237
109,fortuna,40.5982,-124.1573,11.66,62,100,12.35,US,1734335238
110,ad dabbah,18.05,30.95,24.24,35,2,3.8,SD,1734335239
111,stanley,54.868,-1.6985,9.01,83,75,7.72,GB,1734335240
112,tangalle,6.024,80.7911,27.63,83,95,3.02,LK,1734335241
113,longyearbyen,78.2186,15.6401,-7.09,63,20,6.17,SJ,1734335242
114,minas de marcona,-15.2119,-75.1103,15.34,84,100,3.62,PE,1734335243
115,curuzu cuatia,-29.7917,-58.0546,15.96,89,0,3.22,AR,1734335245
116,qaqortoq,60.7167,-46.0333,-12.4,74,19,4.46,GL,1734335246
117,howrah,22.5892,88.3103,25.0,50,6,4.12,IN,1734335247
118,fale old settlement,-9.3852,-171.2468,27.05,81,100,5.8,TK,1734335248
119,yermentau,51.6214,73.1069,-12.6,84,27,8.98,KZ,1734335249
120,utrik,11.2278,169.8474,27.64,86,13,10.55,MH,1734335250
121,yuzhno-kurilsk,44.0306,145.8556,-3.1,62,98,5.64,RU,1734335251
122,manokwari,-0.8667,134.0833,25.61,88,100,3.24,ID,1734335252
123,san pedro,14.35,121.0167,31.57,81,40,4.12,PH,1734335253
124,puerto ayora,-0.7393,-90.3518,21.44,91,95,2.37,EC,1734335254
125,rudnyy,52.9594,63.1206,-5.6,82,100,9.85,KZ,1734335256
126,vershino-darasunskiy,52.35,115.5167,-19.74,92,0,1.46,RU,1734335257
127,fort collins,40.5853,-105.0844,2.15,40,0,5.66,US,1734335049
128,tubarjal,30.4999,38.216,11.06,16,0,4.37,SA,1734335259
129,mana,5.6592,-53.7767,24.74,90,51,2.53,GF,1734335260
130,luanda,-8.8368,13.2343,28.0,83,40,1.54,AO,1734335196
131,tocopilla,-22.092,-70.1979,19.45,77,97,1.49,CL,1734335262
132,choele choel,-39.2667,-65.6833,23.35,32,100,5.51,AR,1734335263
133,invercargill,-46.4,168.35,10.57,72,16,2.24,NZ,1734335264
134,hermanus,-34.4187,19.2345,18.22,56,40,5.82,ZA,1734335265
135,udachny,66.4167,112.4,-27.13,100,77,2.61,RU,1734335267
136,chibougamau,49.9168,-74.3659,-13.21,92,40,2.06,CA,1734335268
137,uruguaiana,-29.7547,-57.0883,17.96,94,0,1.54,BR,1734335269
138,dakhla,23.6848,-15.958,24.01,23,20,8.75,EH,1734335271
139,ain beida,35.7964,7.3928,4.57,84,62,5.42,DZ,1734335272
140,san antonio de pale,-1.4014,5.6325,26.96,82,16,3.08,GQ,1734335273
141,taroudant,30.4703,-8.877,19.0,19,100,5.59,MA,1734335274
142,chinde,26.8212,87.7095,23.78,36,0,2.57,NP,1734335276
143,surovikino,48.6078,42.8486,-0.09,84,100,8.4,RU,1734335277
144,devarkonda,16.7,78.9333,26.23,23,8,3.3,IN,1734335279
145,xiaoweizhai,26.1903,107.5125,14.37,54,69,1.46,CN,1734335280
146,brookings,44.3114,-96.7984,0.66,93,100,3.6,US,1734335281
147,khadan khak,30.7477,67.7085,9.0,43,2,4.98,PK,1734335282
148,port sudan,19.6175,37.2164,26.41,59,27,5.28,SD,1734335283
149,castillos,-34.1667,-53.8333,16.36,92,23,3.95,UY,1734335284
150,souillac,-20.5167,57.5167,27.21,78,40,6.17,MU,1734335286
151,enewetak,11.3474,162.3373,27.73,85,6,11.17,MH,1734335287
152,ak-dovurak,51.1833,90.6,-18.11,85,100,0.6,RU,1734335288
153,kailua-kona,19.6406,-155.9956,23.98,69,0,3.09,US,1734335289
154,acarau,-2.8856,-40.12,25.87,83,72,5.67,BR,1734335290
155,sisimiut,66.9395,-53.6735,-10.35,81,93,6.75,GL,1734335291
156,kiffa,16.6166,-11.4045,21.35,12,55,5.12,MR,1734335293
157,saint-pierre,-21.3393,55.4781,29.82,66,0,10.29,RE,1734335295
158,kodiak,57.79,-152.4072,0.73,100,100,2.06,US,1734335296
159,mejit,10.2753,170.8646,27.64,86,93,10.82,MH,1734335297
160,mielec,50.2871,21.4239,6.55,90,100,10.43,PL,1734335298
161,saint-francois,46.4154,3.9054,4.8,94,100,2.06,FR,1734335299
162,madalena,41.2162,-8.3345,9.32,83,54,2.44,PT,1734335300
163,klyuchi,52.2667,79.1667,-10.37,82,9,6.26,RU,1734335301
164,lata,40.1629,-8.3327,3.63,78,100,2.33,PT,1734335302
165,kijang,35.2442,129.2139,7.85,41,3,2.2,KR,1734335306
166,swakopmund,-22.6833,14.5333,17.77,81,3,1.79,NA,1734335307
167,puerto baquerizo moreno,-0.9,-89.6,21.51,89,100,3.52,EC,1734335308
168,vadso,70.0744,29.7487,-8.91,79,75,13.89,NO,1734335309
169,yendi,9.4427,-0.0099,24.5,16,0,3.77,GH,1734335310
170,alesund,62.4723,6.1549,7.64,60,40,11.32,NO,1734335311
171,tual,-5.6667,132.75,28.21,79,100,10.48,ID,1734335312
172,baniachang,24.5167,91.3667,28.07,26,5,1.42,BD,1734335313
173,miguel calmon,-11.4289,-40.595,20.1,96,100,0.74,BR,1734335315
174,parnamirim,-5.9156,-35.2628,26.94,78,75,5.14,BR,1734335316
175,newman,37.3138,-121.0208,6.69,92,100,0.45,US,1734335317
176,wetumpka,32.5437,-86.2119,12.97,89,11,2.37,US,1734335318
177,port elizabeth,-33.918,25.5701,20.73,78,20,4.63,ZA,1734335319
178,kashin,57.3592,37.6081,-11.17,99,90,2.74,RU,1734335320
179,talnakh,69.4865,88.3972,-13.15,86,77,4.63,RU,1734335321
180,papao,-17.75,-149.55,25.82,72,99,5.13,PF,1734335322
181,avarua,-21.2078,-159.775,26.03,89,31,3.6,CK,1734335323
182,daru,-9.0763,143.2092,27.58,85,100,2.24,PG,1734335324
183,richards bay,-28.783,32.0377,25.94,66,100,5.7,ZA,1734335326
184,murzuq,25.9155,13.9184,14.35,31,82,2.63,LY,1734335327
185,mount gambier,-37.8333,140.7667,20.65,67,21,4.14,AU,1734335328
186,frontera,26.9333,-101.45,17.4,80,0,1.34,MX,1734335329
187,bilibino,68.0546,166.4372,-20.91,97,82,1.17,RU,1734335330
188,pachino,36.7186,15.0907,14.01,69,70,8.66,IT,1734335331
189,rio grande,-32.035,-52.0986,19.95,87,100,7.25,BR,1734335332
190,'alaqahdari dishu,30.4374,63.313,6.22,25,8,5.45,AF,1734335333
191,lagunillas,10.1301,-71.2595,24.55,80,33,1.24,VE,1734335334
192,segezha,63.7415,34.3222,-10.7,80,100,7.49,RU,1734335336
193,poso,-1.3959,120.7524,28.93,69,86,1.81,ID,1734335337
194,bredasdorp,-34.5322,20.0403,20.17,37,1,5.38,ZA,1734335338
195,joshimath,30.5667,79.5667,17.12,11,14,4.05,IN,1734335339
196,prince rupert,54.3161,-130.3201,3.83,60,1,7.72,CA,1734335340
197,afaahiti,-17.75,-149.2833,26.09,77,97,6.14,PF,1734335341
198,laminusa,5.5549,120.9136,28.78,74,67,2.11,PH,1734335342
199,tomatlan,19.9333,-105.25,22.27,96,90,0.32,MX,1734335343
200,kudahuvadhoo,2.6708,72.8944,27.88,72,93,0.14,MV,1734335344
201,camargo,27.6667,-105.1667,13.5,28,15,1.3,MX,1734335345
202,langsa,4.4683,97.9683,29.18,75,100,1.92,ID,1734335347
203,ivdel',60.6911,60.4206,-16.87,85,100,1.36,RU,1734335348
204,new norfolk,-42.7826,147.0587,30.4,37,99,3.82,AU,1734335349
205,nahiyat al fuhud,30.9697,46.7228,13.93,13,0,5.02,IQ,1734335350
206,nikolayevsk-on-amure,53.1406,140.73,-24.42,96,86,2.55,RU,1734335352
207,san luis de la loma,17.2706,-100.8939,24.02,79,100,2.25,MX,1734335353
208,kayangel,8.0823,134.7173,28.34,81,100,7.75,PW,1734335354
209,nuuk,64.1835,-51.7216,-4.66,68,75,1.54,GL,1734334942
210,cabo san lucas,22.8909,-109.9124,19.31,70,87,0.88,MX,1734335357
211,arteaga,18.4667,-102.4167,18.53,96,40,1.24,MX,1734335358
212,huambo,-12.7761,15.7392,21.61,74,98,1.38,AO,1734335360
213,ilulissat,69.2167,-51.1,-8.99,67,100,6.69,GL,1734335361
214,markovo,57.3206,107.0881,-17.47,99,26,1.21,RU,1734335362
215,orkney,-26.9802,26.6727,30.46,32,96,6.08,ZA,1734335363
216,biscarrosse,44.3945,-1.1672,0.97,93,0,1.54,FR,1734335364
217,la gi,10.6667,107.7833,25.56,79,100,2.02,VN,1734335366
218,cabedelo,-6.9811,-34.8339,26.37,85,17,5.47,BR,1734335367
219,gaiman,-43.2897,-65.4929,16.11,54,17,6.23,AR,1734335368
220,geraldton,-28.7667,114.6,25.23,47,0,11.32,AU,1734335348
221,lagoa,39.05,-27.9833,17.06,89,59,6.55,PT,1734335370
222,atafu village,-8.5421,-172.5159,26.67,84,100,8.11,TK,1734335371
223,tsiombe,-25.3,45.4833,39.47,22,2,1.52,MG,1734335372
224,adra,36.7496,-3.0206,11.76,57,42,5.76,ES,1734335373
225,punta arenas,-53.15,-70.9167,10.06,76,100,4.63,CL,1734335374
226,plouzane,48.3833,-4.6167,10.03,88,100,1.54,FR,1734335376
227,island harbour,50.724,-1.2758,10.04,88,92,2.24,GB,1734335377
228,quellon,-43.1167,-73.6167,11.06,93,100,1.42,CL,1734335378
229,faya-largeau,17.9257,19.1043,27.94,18,0,4.12,TD,1734335379
230,el kef,36.1742,8.7049,8.09,87,76,3.83,TN,1734335380
231,vyazemskiy,47.5378,134.7525,-23.26,98,7,2.03,RU,1734335381
232,tulun,54.5611,100.5792,-9.67,91,80,1.33,RU,1734335382
233,tabou,4.423,-7.3528,27.35,77,1,1.22,CI,1734335383
234,machico,32.7,-16.7667,21.11,85,75,4.63,PT,1734335384
235,malango,-2.9627,119.9001,24.93,88,100,0.78,ID,1734335385
236,mglin,53.0591,32.8475,-1.46,96,100,7.13,RU,1734335387
237,chilaw,7.5758,79.7953,25.73,89,100,7.93,LK,1734335388
238,luderitz,-26.6481,15.1594,21.92,61,1,10.49,NA,1734335389
239,high rock,26.6208,-78.2833,23.07,82,19,9.28,BS,1734335391
240,sinjai,-5.1241,120.253,26.56,84,99,2.11,ID,1734335393
241,jinghong,21.991,100.7341,23.69,49,22,1.48,CN,1734335395
242,kruisfontein,-34.0033,24.7314,17.84,64,100,3.53,ZA,1734335396
243,dudinka,69.4058,86.1778,-13.5,86,98,10.16,RU,1734335397
244,la'ie,21.6477,-157.9253,23.39,85,13,3.58,US,1734335399
245,fada,7.25,4.0667,23.37,78,21,3.09,NG,1734335400
246,umred,20.85,79.3333,26.14,19,3,2.71,IN,1734335402
247,tralee,52.2704,-9.7026,11.14,87,20,1.03,IE,1734335404
248,remire-montjoly,4.9167,-52.2667,25.02,94,100,0.0,GF,1734335405
249,hamilton,39.1834,-84.5333,11.1,95,100,0.45,US,1734335406
250,naze,28.3667,129.4833,15.51,58,93,4.66,JP,1734335407
251,tazovsky,67.4667,78.7,-14.47,92,100,8.28,RU,1734335408
252,nabire,-3.3667,135.4833,25.28,91,100,0.36,ID,1734335409
253,shimoda,34.6667,138.95,10.23,59,2,11.31,JP,1734335410
254,kamaishi,39.2667,141.8833,0.01,60,24,2.61,JP,1734335411
255,woodbridge,40.5576,-74.2846,5.02,83,100,1.54,US,1734335412
256,ebaye,8.7748,167.7392,28.01,83,40,6.17,MH,1734335413
257,misratah,32.3754,15.0925,17.33,52,100,7.4,LY,1734335415
258,aral,40.5156,81.2636,-1.75,44,49,1.97,CN,1734335416
259,al jawf,29.5,38.75,12.3,15,7,3.19,SA,1734335417
260,alausi,-2.2,-78.8333,9.67,91,61,1.52,EC,1734335418
261,merizo village,13.2658,144.6691,29.31,86,40,9.53,GU,1734335419
262,cuajinicuilapa,16.4667,-98.4167,22.42,89,3,1.61,MX,1734335420
263,inhambane,-23.865,35.3833,30.0,70,20,8.23,MZ,1734335421
264,sao vicente,-23.9631,-46.3919,26.66,26,0,3.16,BR,1734335422
265,chokwe,-24.5333,32.9833,37.47,28,5,3.72,MZ,1734335423
266,hayle,50.1839,-5.4214,10.7,98,100,3.09,GB,1734335425
267,tidjikja,18.5564,-11.4271,20.95,12,100,8.74,MR,1734335426
268,mezhdurechenskiy,59.6,65.9333,-13.36,85,100,3.02,RU,1734335427
269,ataq,14.5377,46.8319,17.16,43,0,5.6,YE,1734335428
270,aasiaat,68.7098,-52.8699,-14.18,99,100,3.41,GL,1734335429
271,pho thong,14.6673,100.4088,31.09,42,27,6.08,TH,1734335430
272,saipan,15.1355,145.701,29.39,81,40,8.23,MP,1734335431
273,keflavik,64.0049,-22.5624,0.24,93,40,3.09,IS,1734335432
274,inarajan village,13.2736,144.7484,29.54,86,41,9.62,GU,1734335433
275,al ghayzah,16.2079,52.176,26.92,30,0,3.64,YE,1734335434
276,hilo,19.7297,-155.09,21.73,92,0,0.89,US,1734335353
277,bougouni,11.417,-7.479,20.95,17,0,1.78,ML,1734335437
278,lorengau,-2.0226,147.2712,28.03,80,100,2.93,PG,1734335438
279,kabinda,-6.1333,24.4833,25.61,78,100,0.17,CD,1734335439
280,askoy,60.4092,5.226,6.16,75,40,4.63,NO,1734335440
281,crixas,-14.5489,-49.9692,19.44,94,97,0.98,BR,1734335441
282,kalmunai,7.4167,81.8167,26.45,86,100,6.15,LK,1734335442
283,larreynaga,12.6769,-86.5719,19.13,73,3,1.02,NI,1734335443
284,valle de la pascua,9.2155,-66.0073,23.02,85,41,2.35,VE,1734335444
285,isafjordur,66.0755,-23.124,-1.98,64,75,4.12,IS,1734335445
286,velyka bahachka,49.7912,33.7226,1.07,82,100,7.73,UA,1734335447
287,hadibu,12.65,54.0333,25.23,67,7,9.43,YE,1734335448
288,awjilah,29.1081,21.2869,15.58,43,36,1.94,LY,1734335449
289,vila velha,-20.3297,-40.2925,25.97,90,20,6.69,BR,1734335450
290,la passe,45.5549,-0.8967,5.74,88,0,3.37,FR,1734335451
291,mariental,-24.6333,17.9667,27.33,13,5,0.34,NA,1734335452
292,arar,30.9753,41.0381,7.01,19,0,3.09,SA,1734335453
293,barra de santo antonio,-9.4047,-35.5072,25.19,87,96,3.85,BR,1734335455
294,westport,41.1415,-73.3579,3.19,86,100,2.57,US,1734335457
295,eaglehawk,-36.7333,144.25,35.32,51,87,3.12,AU,1734335458
296,mar del plata,-38.0023,-57.5575,15.01,90,75,2.68,AR,1734335459
297,mount pearl,47.5166,-52.7813,-1.59,86,75,5.66,CA,1734335460
298,assare,-6.8744,-39.875,21.13,87,89,0.98,BR,1734335461
299,enshi,30.3,109.4833,11.95,48,0,0.94,CN,1734335463
300,mil'kovo,55.6078,37.7956,-0.27,62,79,4.94,RU,1734335464
301,trashi yangtse,27.6116,91.498,20.22,26,0,3.36,BT,1734335465
302,kulhudhuffushi,6.6221,73.07,28.15,74,16,3.39,MV,1734335467
303,gadzhiyevo,69.2551,33.3362,-13.97,82,100,4.62,RU,1734335468
304,karratha,-20.7377,116.8463,35.03,44,51,6.9,AU,1734335469
305,mingshui,36.7167,117.5,5.69,30,0,1.02,CN,1734335470
306,gyumri,40.7942,43.8453,-10.21,67,20,1.03,AM,1734335471
307,okhotsk,59.3833,143.3,-13.31,77,100,7.07,RU,1734335472
308,saurimo,-9.6608,20.3916,23.91,77,98,0.5,AO,1734335474
309,salalah,17.0151,54.0924,26.05,36,0,9.26,OM,1734335475
310,greenville,35.6127,-77.3663,9.52,98,100,0.89,US,1734335477
311,bardai,11.65,7.2333,19.37,25,64,7.38,NG,1734335478
312,batang,-6.4846,110.7083,26.62,86,100,1.15,ID,1734335479
313,al mayadin,35.0209,40.4535,10.87,23,100,3.02,SY,1734335480
314,rundu,-17.9333,19.7667,31.16,34,68,2.7,NA,1734335481
315,pariaman,-0.619,100.12,31.03,70,61,2.96,ID,1734335482
316,owase,34.0667,136.2,4.99,74,22,1.57,JP,1734335483
317,east london,-33.0153,27.9116,20.52,77,100,2.57,ZA,1734335484
318,paracuru,-3.41,-39.0306,26.47,79,83,6.04,BR,1734335485
319,bestobe,52.4994,73.0975,-11.14,79,40,9.55,KZ,1734335487
320,karakol,42.4907,78.3936,-9.44,80,100,4.48,KG,1734335488
321,aginskoye,51.1,114.53,-18.14,92,3,2.59,RU,1734335489
322,nacala,-14.5428,40.6728,30.62,74,75,5.66,MZ,1734335491
323,kingsland,30.8,-81.6898,14.98,96,16,1.88,US,1734335492
324,coquimbo,-29.9533,-71.3436,12.85,94,0,0.51,CL,1734335493
325,hovd,48.0056,91.6419,-14.94,78,100,0.74,MN,1734335494
326,beyneu,45.3167,55.2,-0.15,64,100,12.72,KZ,1734335495
327,port saint john's,-31.6229,29.5448,20.51,86,100,1.41,ZA,1734335496
328,manga,11.6636,-1.0731,22.41,17,0,4.22,BF,1734335497
329,porto franco,-6.3383,-47.3992,22.78,90,74,0.78,BR,1734335498
330,severo-yeniseyskiy,60.3725,93.0408,-6.86,87,100,5.09,RU,1734335499
331,puerto santa,-8.9906,-78.6456,17.9,93,100,2.01,PE,1734335500
332,naqadeh,36.9553,45.388,5.53,20,99,1.56,IR,1734335502
333,ebon,4.582,168.6964,28.7,75,72,7.93,MH,1734335504
334,strasshof an der nordbahn,48.3158,16.6502,9.22,77,76,0.89,AT,1734335505
335,kolonia,50.9333,6.95,10.54,90,100,5.14,DE,1734335506
336,martinsburg,39.4562,-77.9639,1.43,96,100,1.54,US,1734335507
337,touros,-5.1989,-35.4608,25.84,82,28,5.45,BR,1734335508
338,crane,31.3974,-102.3501,14.43,96,10,3.02,US,1734335510
339,east wenatchee bench,47.4257,-120.2812,0.54,87,100,1.34,US,1734335511
340,veinticinco de mayo,-35.4323,-60.1727,11.66,90,0,0.89,AR,1734335512
341,santa ana de yacuma,-13.75,-65.4333,22.51,91,100,1.54,BO,1734335513
342,lazaro cardenas,17.9583,-102.2,23.51,89,95,1.87,MX,1734335514
343,novyy urengoy,66.0833,76.6333,-14.97,91,100,7.88,RU,1734335458
344,port alfred,-33.5906,26.891,21.77,75,100,0.89,ZA,1734335516
345,ngereklmadel,7.4883,134.4856,31.05,70,75,5.66,PW,1734335517
346,sao joao da barra,-21.6403,-41.0511,24.35,81,100,4.75,BR,1734335518
347,outjo,-20.1167,16.15,29.92,30,1,2.53,NA,1734335519
348,bonthe,7.5264,-12.505,25.9,86,3,1.91,SL,1734335521
349,pasuquin,18.3328,120.6177,29.97,62,20,6.17,PH,1734335522
350,rengo,-34.4167,-70.8667,13.07,71,0,0.1,CL,1734335523
351,yamada,39.4667,141.95,-0.64,59,1,0.96,JP,1734335524
352,stornoway,58.2093,-6.3865,8.38,92,75,3.09,GB,1734335525
353,loushanguan,28.1375,106.82,10.38,62,27,1.58,CN,1734335526
354,saint-georges,12.0564,-61.7485,26.82,83,20,3.09,GD,1734335527
355,piti village,13.4626,144.6933,29.49,78,40,8.75,GU,1734335528
356,argo,37.6333,22.7333,12.14,51,68,2.61,GR,1734335306
357,jacksonville,30.3322,-81.6556,16.06,96,100,3.09,US,1734335458
358,antofagasta,-23.65,-70.4,15.6,91,78,0.6,CL,1734335532
359,kiraz,38.2306,28.2044,9.61,84,100,2.38,TR,1734335533
360,nadi,-17.8,177.4167,28.0,69,75,4.12,FJ,1734335534
361,bikenibeu village,1.3673,173.1241,28.98,79,20,3.6,KI,1734335535
362,ujae,8.9322,165.7642,28.06,82,38,10.0,MH,1734335536
363,wynyard,-41.0,145.7167,20.66,83,87,10.28,AU,1734335537
364,rongelap,11.1635,166.8941,27.55,86,99,10.63,MH,1734335538
365,al mindak,20.1588,41.2834,17.21,28,0,2.62,SA,1734335539
366,igarka,67.4667,86.5833,-14.15,86,97,7.14,RU,1734335540
367,labytnangi,66.6572,66.4183,-20.88,92,89,3.04,RU,1734335541
368,east ballina,-28.8667,153.5833,24.32,87,7,6.75,AU,1734335543
369,sault ste. marie,46.5168,-84.3333,3.16,100,100,4.12,CA,1734335544
370,cidreira,-30.1811,-50.2056,19.29,93,74,5.8,BR,1734335545
371,lihue,21.9789,-159.3672,23.77,88,100,4.12,US,1734335546
372,las khorey,11.1595,48.1967,26.38,63,34,7.42,SO,1734335547
373,vorgashor,67.5833,63.95,-19.07,99,94,4.16,RU,1734335548
374,wuyo,10.3852,11.6968,23.76,26,100,2.16,NG,1734335549
375,revda,56.801,59.9303,-5.34,88,100,5.5,RU,1734335550
376,woodland park,40.8898,-74.1949,3.12,92,100,1.54,US,1734335551
377,luganville,-15.5333,167.1667,26.92,82,81,1.78,VU,1734335552
378,sonoita,31.85,-112.8333,11.39,36,0,2.29,MX,1734335554
379,baruun-urt,46.6806,113.2792,-12.29,88,6,1.39,MN,1734335555
380,machali,-34.1833,-70.6667,13.27,61,0,0.94,CL,1734335556
381,lingyuan,41.24,119.4011,-2.09,43,11,0.7,CN,1734335557
382,pimentel,-6.8367,-79.9342,19.16,82,0,4.63,PE,1734335558
383,nuku'alofa,-21.1333,-175.2,25.19,83,40,3.6,TO,1734335559
384,egersund,58.4513,5.9997,7.1,77,100,10.73,NO,1734335560
385,pacific grove,36.6177,-121.9166,9.8,90,0,3.09,US,1734335561
386,nova sintra,14.8667,-24.7167,24.84,78,100,9.07,CV,1734335562
387,saint-arnoult-en-yvelines,48.5667,1.9333,8.92,95,1,3.6,FR,1734335563
388,harstad,68.799,16.5293,-3.25,94,100,4.92,NO,1734335565
389,muroto-misakicho,33.2833,134.15,12.22,60,29,6.53,JP,1734335566
390,selfoss,63.9331,-20.9971,-2.57,93,100,2.16,IS,1734335567
391,vorkuta,67.5,64.0,-19.12,99,94,4.27,RU,1734335568
392,kasongo-lunda,-6.4667,16.8167,22.46,99,100,0.28,CD,1734335569
393,bodo,67.28,14.405,-2.81,77,75,9.77,NO,1734335570
394,paramonga,-10.6667,-77.8333,19.19,91,100,2.61,PE,1734335571
395,taitung city,22.7583,121.1444,18.15,72,75,3.09,TW,1734335572
396,castelli,-25.9468,-60.6195,17.1,79,0,2.23,AR,1734335573
397,guerrero negro,27.9769,-114.0611,14.41,86,0,3.62,MX,1734335575
398,maxixe,-23.8597,35.3472,29.91,70,20,8.23,MZ,1734335576
399,dalandzadgad,43.5708,104.425,-5.94,33,100,6.18,MN,1734335577
400,arkadelphia,34.1209,-93.0538,13.87,100,100,0.0,US,1734335578
401,ulanhot,46.0833,122.0833,-10.17,51,0,3.06,CN,1734335579
402,lianhe,47.1333,129.2667,-17.37,84,79,2.66,CN,1734335580
403,kirensk,57.7853,108.1119,-20.25,100,23,1.0,RU,1734335581
404,soio,-6.1349,12.3689,28.45,76,82,1.65,AO,1734335582
405,burang,30.25,81.1667,3.9,16,0,5.46,CN,1734335583
406,lincoln city,44.9582,-124.0179,7.05,96,100,4.47,US,1734335585
407,villa gesell,-37.2639,-56.973,15.39,81,100,3.2,AR,1734335587
408,tadine,-21.55,167.8833,25.99,83,100,2.31,NC,1734335588
409,villa dolores,-31.9459,-65.1896,20.53,43,85,1.94,AR,1734335590
410,ponta delgada,37.7333,-25.6667,18.44,94,75,3.6,PT,1734335592
411,belomorsk,64.5232,34.7668,-14.03,84,100,3.17,RU,1734335593
412,baihe,22.15,107.2333,21.1,24,0,1.58,CN,1734335594
413,al kharijah,25.4514,30.5464,18.11,28,36,4.18,EG,1734335595
414,west fargo,46.875,-96.9004,-0.97,86,100,4.63,US,1734335596
415,sao gabriel da cachoeira,-0.1303,-67.0892,22.31,99,100,0.56,BR,1734335597
416,new plymouth,-39.0667,174.0833,18.78,100,2,3.85,NZ,1734335412
417,pisco,-13.7,-76.2167,19.03,77,100,2.57,PE,1734335599
418,lady frere,-31.7031,27.2329,22.71,49,93,1.92,ZA,1734335600
419,pandan,14.0453,124.1694,26.06,87,92,8.39,PH,1734335602
420,rafaela,-31.2503,-61.4867,14.44,81,0,1.66,AR,1734335603
421,dunedin,-45.8742,170.5036,11.56,65,38,1.34,NZ,1734335604
422,akureyri,65.6835,-18.0878,-5.04,93,75,2.06,IS,1734335605
423,charlestown,-32.95,151.6667,28.16,74,0,2.24,AU,1734335606
424,mili,6.0815,171.735,28.43,79,100,8.76,MH,1734335607
425,makinsk,52.6292,70.4169,-10.83,84,97,9.17,KZ,1734335608
426,buncrana,55.1333,-7.45,9.87,76,100,8.32,IE,1734335609
427,greymouth,-42.4667,171.2,11.6,86,38,4.69,NZ,1734335610
428,mermoz boabab,14.7065,-17.4758,21.88,88,0,3.09,SN,1734335612
429,kodinsk,58.6881,99.1844,-8.16,92,100,1.61,RU,1734335613
430,taoudenni,22.6783,-3.9836,16.9,22,64,7.33,ML,1734335614
431,mont-dore,-22.2833,166.5833,26.76,79,100,1.4,NC,1734335615
432,salinopolis,-0.6136,-47.3561,26.53,83,50,5.66,BR,1734335616
433,solnechnyy,50.7214,136.6319,-24.53,100,100,1.56,RU,1734335617
434,caleta de carquin,-11.0925,-77.6267,19.18,90,100,3.0,PE,1734335618
435,ibaiti,-23.8486,-50.1878,13.84,90,0,1.32,BR,1734335619
436,tarakan,3.3,117.6333,32.72,62,40,2.57,ID,1734335621
437,anniston,33.6598,-85.8316,10.6,93,100,3.6,US,1734335622
438,reggane,26.7158,0.1714,15.38,35,53,8.93,DZ,1734335623
439,waingapu,-9.6567,120.2641,28.74,77,100,4.54,ID,1734335624
440,kefamenanu,-9.4467,124.4781,26.81,78,89,1.49,ID,1734335625
441,le port,-20.9373,55.2919,30.84,69,22,0.39,RE,1734335626
442,ulsteinvik,62.3432,5.8487,6.28,66,61,4.02,NO,1734335627
443,bure,10.7,37.0667,22.66,37,55,1.98,ET,1734335628
444,chunskiy,56.0815,99.6342,-8.68,94,100,0.91,RU,1734335630
445,misantla,19.9333,-96.8333,17.74,90,13,1.97,MX,1734335631
446,smithers,54.7804,-127.1743,-5.82,86,100,1.54,CA,1734335632
447,three rivers,41.9439,-85.6325,7.06,93,100,1.54,US,1734335633
448,kendari,-3.945,122.4989,29.36,79,81,0.48,ID,1734335635
449,watford city,47.8022,-103.2832,-3.08,100,100,4.63,US,1734335636
450,rodolfo sanchez taboada,31.7167,-116.5667,13.24,60,45,1.16,MX,1734335637
451,eidson road,28.6772,-100.487,20.65,91,52,4.0,US,1734335638
452,vilyuysk,63.7553,121.6247,-32.16,99,47,2.35,RU,1734335640
453,kingston,17.997,-76.7936,25.53,89,40,5.14,JM,1734335641
454,khasab,26.1799,56.2477,19.45,48,0,5.31,OM,1734335642
455,koryazhma,61.3143,47.1691,-11.33,93,100,2.95,RU,1734335643
456,fort frances,48.5999,-93.4003,1.2,93,100,2.57,CA,1734335644
457,kindu,-2.95,25.95,23.24,96,100,1.35,CD,1734335645
458,hotan,37.0997,79.9269,-1.58,42,0,1.72,CN,1734335647
459,fort bragg,35.139,-79.006,9.91,89,100,1.54,US,1734335649
460,broken hill,-31.95,141.4333,40.89,12,49,6.39,AU,1734335650
461,san patricio,28.017,-97.5169,21.97,88,0,4.79,US,1734335651
462,deqen,29.9618,90.7188,10.5,7,0,10.57,CN,1734335652
463,sokoni,-6.4333,39.55,28.02,76,60,6.44,TZ,1734335653
464,madera,37.1666,-119.8343,9.48,84,100,1.27,US,1734335654
465,luwuk,-0.9516,122.7875,28.08,71,72,1.04,ID,1734335655
466,belyy yar,53.6039,91.3903,-9.06,86,75,0.0,RU,1734335656
467,vila franca do campo,37.7167,-25.4333,18.27,99,100,3.05,PT,1734335658
468,tippi,7.2,35.45,30.72,33,95,1.3,ET,1734335659
469,ushtobe,45.2514,77.9838,-4.36,61,27,1.71,KZ,1734335660
470,san pedro pochutla,15.7333,-96.4667,22.62,59,12,1.42,MX,1734335661
471,tynda,55.1667,124.7167,-19.32,80,20,4.1,RU,1734335662
472,siwa oasis,29.2041,25.5195,16.24,47,46,1.57,EG,1734335663
473,amurrio,43.05,-3.0,5.41,92,2,3.48,ES,1734335664
474,nieuw amsterdam,5.8833,-55.0833,24.4,90,20,3.28,SR,1734335665
475,schiffweiler,49.3667,7.1333,7.04,97,100,6.69,DE,1734335418
476,xinyuan,37.3,99.0,-0.23,9,5,1.72,CN,1734335668
477,badger,64.8,-147.5333,-21.47,80,100,2.06,US,1734335669
478,saint-pol-de-leon,48.6833,-3.9833,9.81,86,42,2.68,FR,1734335670
479,sogutlu,40.9059,30.4745,7.13,82,100,2.55,TR,1734335671
480,liberal,37.0431,-100.921,-1.92,80,0,4.12,US,1734335458
481,zaozhuang,34.8647,117.5542,7.39,31,0,1.19,CN,1734335674
482,wakkanai,45.4094,141.6739,-6.01,86,75,1.54,JP,1734335675
483,la ronge,55.1001,-105.2842,-10.86,92,100,3.09,CA,1734335676
484,coari,-4.085,-63.1414,23.22,99,99,0.98,BR,1734335679
485,airuk,7.2772,168.8203,27.99,81,91,9.07,MH,1734335680
486,bairnsdale,-37.8333,147.6167,28.63,52,70,1.41,AU,1734335681
487,inverloch,-38.6333,145.7167,30.86,38,74,4.84,AU,1734335682
488,halifax,44.6453,-63.5724,-4.19,79,11,3.04,CA,1734335683
489,olds,51.7834,-114.102,-7.09,96,100,1.76,CA,1734335685
490,sungai penuh,-2.0833,101.3833,25.71,58,38,3.02,ID,1734335686
491,usinsk,65.9939,57.5281,-22.88,99,100,4.97,RU,1734335687
492,buala,-8.145,159.5921,27.69,82,96,1.72,SB,1734335688
493,thunder bay,48.4001,-89.3168,1.99,100,100,3.6,CA,1734335689
494,malanville,11.8685,3.3899,22.22,19,28,5.39,BJ,1734335690
495,princeville,45.7668,-61.2985,-1.28,76,0,3.09,CA,1734335691
496,dauphin,51.1494,-100.0502,-3.92,100,100,3.09,CA,1734335692
497,taroa,8.7058,171.2275,27.69,84,30,10.02,MH,1734335695
498,sinan,34.8262,126.1086,6.62,55,67,6.29,KR,1734335696
499,saint-philippe,-21.3585,55.7679,26.65,76,10,6.55,RE,1734335697
500,novodvinsk,64.4165,40.8122,-17.14,99,36,1.82,RU,1734335698
501,anloga,5.7947,0.8973,28.06,73,32,2.0,GH,1734335699
502,qusmuryn,52.4503,64.6311,-6.55,86,100,10.74,KZ,1734335700
503,zabaykal'sk,49.6333,117.3167,-19.61,87,1,3.24,RU,1734335701
504,brigantine,39.4101,-74.3646,7.86,97,100,4.12,US,1734335703
505,alofi,-19.0595,-169.9187,22.94,83,9,1.03,NU,1734335704
506,dehdasht,30.7949,50.5646,13.89,18,0,1.62,IR,1734335705
507,raduzhny,62.0961,77.475,-15.55,90,100,6.31,RU,1734335706
508,zaozersk,69.4005,32.4476,-15.01,79,100,3.78,RU,1734335707
509,tari,-11.1105,14.3559,21.4,92,99,0.77,AO,1734335708
510,arua,3.0201,30.9111,28.02,44,78,3.24,UG,1734335709
511,tanaina,61.6269,-149.4281,-7.55,83,100,3.6,US,1734335710
512,mahibadhoo,3.7833,72.9667,27.3,79,100,3.61,MV,1734335712
513,burgersdorp,-30.9977,26.3286,26.17,19,20,7.15,ZA,1734335713
514,enoch,37.7733,-113.0244,-0.85,68,0,2.06,US,1734335714
515,kuta,-8.7233,115.1723,24.97,100,75,3.6,ID,1734335715
516,snovsk,51.8239,31.9428,-0.48,97,100,7.6,UA,1734335716
517,novokuybyshevsk,53.0959,49.9462,-1.19,97,100,6.18,RU,1734335717
518,fort st. john,56.2499,-120.8529,-25.06,77,40,3.09,CA,1734335718
519,pemba,-12.974,40.5178,29.36,71,58,6.0,MZ,1734335719
520,kone,-21.0595,164.8658,29.31,59,100,1.8,NC,1734335720
521,moree,-29.4667,149.85,35.57,23,41,9.62,AU,1734335722
522,hasaki,35.7333,140.8333,11.53,53,61,2.47,JP,1734335723
523,albertina,-22.2008,-46.6158,18.76,93,99,1.9,BR,1734335725
524,tazacorte,28.629,-17.9293,25.54,24,0,11.32,ES,1734335726
525,taltal,-25.4,-70.4833,16.34,89,33,0.98,CL,1734335727
526,kentville,45.0835,-64.4988,-5.86,79,7,1.54,CA,1734335728
527,plettenberg bay,-34.0527,23.3716,18.72,61,93,2.58,ZA,1734335730
528,angra do heroismo,38.65,-27.2167,16.34,94,20,1.24,PT,1734335731
529,mpanda,-6.3655,31.0409,24.96,78,94,1.43,TZ,1734335732
530,walvis bay,-22.9575,14.5053,19.86,59,0,3.5,NA,1734335733
531,general villegas,-35.0328,-63.0125,15.06,41,0,1.74,AR,1734335734
532,kenora,49.8167,-94.4337,0.54,100,100,4.12,CA,1734335735
533,aktau,43.65,51.2,3.32,77,100,14.59,KZ,1734335736
534,ibarreta,-25.2144,-59.8585,17.07,81,11,2.29,AR,1734335737
535,badagara,11.6,75.5833,28.43,52,100,3.76,IN,1734335738
536,viana do castelo,41.6932,-8.8329,8.57,69,56,4.51,PT,1734335740
537,constantia,44.1833,28.65,1.5,75,5,7.34,RO,1734335741
538,mchinji,-13.7984,32.8802,28.56,47,79,0.94,MW,1734335742
539,woodlake,37.4211,-77.6793,5.38,96,100,2.57,US,1734335743
540,sao felix do xingu,-6.6447,-51.995,21.61,98,100,0.45,BR,1734335744
541,nizhnesortymskiy,62.4397,71.7603,-21.85,94,18,6.3,RU,1734335745
542,noumea,-22.2763,166.4572,26.6,83,100,1.68,NC,1734335746
543,blenheim,-41.516,173.9528,14.73,88,99,9.53,NZ,1734335747
544,kuraymah,18.55,31.85,25.29,43,2,6.28,SD,1734335749
545,hinesville,31.8469,-81.5959,12.98,90,0,0.0,US,1734335750
546,portland,45.5234,-122.6762,7.01,92,100,4.63,US,1734334984
547,abashiri,44.0213,144.2697,-3.84,42,40,2.57,JP,1734335752
548,padampur,29.6833,73.6167,22.28,9,0,0.35,IN,1734335753
549,mindelo,16.8901,-24.9804,23.75,83,75,7.2,CV,1734335754
550,usogorsk,63.4106,48.6872,-17.33,95,100,3.47,RU,1734335755
551,barcelos,41.5388,-8.6151,5.54,76,32,3.27,PT,1734335756
552,shreveport,32.5251,-93.7502,19.12,91,75,4.12,US,1734335757
553,aliveri,38.4167,24.0333,9.67,79,100,5.68,GR,1734335759
554,sur,22.5667,59.5289,23.96,59,5,10.36,OM,1734335760
555,hurghada,27.2574,33.8129,20.02,28,0,5.14,EG,1734335761
556,zaragoza,41.6561,-0.8773,2.25,93,0,3.6,ES,1734335762
557,ad dilam,23.9915,47.1627,14.7,9,0,4.22,SA,1734335763
558,xilin hot,43.9667,116.0333,-10.25,87,11,1.0,CN,1734335764
559,rikaze,29.25,88.8833,8.14,9,0,0.24,CN,1734335765
560,kananga,-5.8958,22.4178,28.0,64,100,1.81,CD,1734335766
561,naracoorte,-36.9579,140.7383,24.34,49,11,8.7,AU,1734335769
562,dzilam gonzalez,21.2833,-88.9333,20.09,96,0,1.2,MX,1734335770
563,choma,-16.8065,26.9531,29.37,39,7,3.62,ZM,1734335771
564,glace bay,46.1969,-59.957,-1.79,82,0,2.68,CA,1734335772
565,pizarro,4.9533,-77.366,24.24,92,100,2.36,CO,1734335773
566,vetluzhskiy,58.3902,45.4654,-6.01,95,99,2.54,RU,1734335774
567,merritt,50.1123,-120.7942,-5.93,87,54,0.89,CA,1734335775
568,mikhaylovsk,45.1283,42.0256,0.12,93,100,8.0,RU,1734335693
569,mto wa mbu,-3.35,35.85,28.57,47,93,4.55,TZ,1734335778
