City_ID,City,Lat,Lng,Max Temp,Humidity,Cloudiness,Wind Speed,Country,Date
0,waitangi,-43.9535,-176.5597,14.9,95,100,2.68,NZ,1734386747
1,gagnoa,6.1293,-5.9437,23.72,79,26,1.12,CI,1734386748
2,petra,30.3222,35.4793,5.46,30,100,1.91,JO,1734386749
3,iskateley,67.6803,53.1512,-23.35,94,10,2.88,RU,1734386750
4,udachny,66.4167,112.4,-10.33,91,100,5.4,RU,1734386751
5,constantia,44.1833,28.65,5.39,72,88,10.06,RO,1734386752
6,dwarka,22.2394,68.9678,21.87,36,2,6.08,IN,1734386753
7,forlimpopoli,44.1911,12.1287,5.14,80,0,0.51,IT,1734386754
8,kapuskasing,49.4169,-82.4331,2.05,100,100,4.63,CA,1734386756
9,xunchang,28.4543,104.715,7.18,80,100,0.53,CN,1734386757
10,itoman,26.1247,127.6694,15.61,69,0,2.57,JP,1734386758
11,napili-honokowai,20.9708,-156.6705,27.64,67,3,1.58,US,1734386759
12,port-aux-francais,-49.35,70.2167,7.05,91,95,14.13,TF,1734386760
13,remire-montjoly,4.9167,-52.2667,28.02,78,40,2.06,GF,1734386761
14,albany,42.6001,-73.9662,3.65,79,100,1.34,US,1734386754
15,chernyshevskiy,63.0128,112.4714,-9.66,88,100,4.79,RU,1734386763
16,kralendijk,12.15,-68.2667,28.05,80,61,7.86,BQ,1734386765
17,bamboo flat,11.7,92.7167,28.05,83,75,5.81,IN,1734386766
18,invercargill,-46.4,168.35,13.9,62,1,3.58,NZ,1734386767
19,blackmans bay,-43.0167,147.3167,17.07,64,99,2.24,AU,1734386768
20,ishikawa,26.4233,127.8214,15.58,72,20,1.54,JP,1734386769
21,cartagena del chaira,1.3349,-74.8429,28.39,61,92,1.88,CO,1734386770
22,magadan,59.5667,150.8,-13.61,74,100,5.17,RU,1734386680
23,vila franca do campo,37.7167,-25.4333,18.27,99,34,4.54,PT,1734386774
24,yellowknife,62.456,-114.3525,-22.71,70,100,5.66,CA,1734386775
25,puerto ayora,-0.7393,-90.3518,23.61,79,98,4.05,EC,1734386776
26,inhambane,-23.865,35.3833,26.34,90,99,3.23,MZ,1734386777
27,kon tum,14.35,108.0,14.51,97,86,0.97,VN,1734386778
28,tazovsky,67.4667,78.7,-22.8,92,72,6.8,RU,1734386779
29,isafjordur,66.0755,-23.124,-5.24,87,100,2.99,IS,1734386780
30,grytviken,-54.2811,-36.5092,3.23,77,21,5.34,GS,1734386781
31,st. john's,47.5649,-52.7093,2.31,72,75,5.66,CA,1734386782
32,aykhal,66.0,111.5,-11.89,92,100,7.29,RU,1734386784
33,avarua,-21.2078,-159.775,27.03,89,7,4.12,CK,1734386785
34,adamstown,-25.066,-130.1015,22.21,71,8,6.69,PN,1734386786
35,tsiombe,-25.3,45.4833,25.59,61,15,2.51,MG,1734386787
36,gizo,-8.103,156.8419,28.89,74,92,1.95,SB,1734386788
37,manismata,-2.4667,111.0333,23.98,97,100,0.99,ID,1734386789
38,ploermel,47.9317,-2.3978,7.58,92,66,2.24,FR,1734386790
39,kapa'a,22.0752,-159.319,26.38,76,0,3.09,US,1734386792
40,dudinka,69.4058,86.1778,-15.48,94,100,10.18,RU,1734386794
41,erenhot,43.6475,111.9767,-8.74,66,18,1.95,CN,1734386795
42,bilibino,68.0546,166.4372,-24.21,100,97,1.15,RU,1734386796
43,port augusta,-32.5,137.7667,20.14,55,0,10.51,AU,1734386797
44,puerto natales,-51.7236,-72.4875,20.25,45,0,7.2,CL,1734386798
45,ribeira grande,38.5167,-28.7,17.22,67,40,6.69,PT,1734386799
46,ca mau,9.1769,105.15,21.32,88,44,1.87,VN,1734386800
47,sinabang,2.4803,96.3801,26.14,84,100,0.88,ID,1734386801
48,ushuaia,-54.8,-68.3,10.92,86,100,0.32,AR,1734386803
49,lambarene,-0.7001,10.2406,24.41,93,100,1.65,GA,1734386804
50,gaalkacyo,6.7697,47.4308,23.09,58,2,7.83,SO,1734386805
51,kudahuvadhoo,2.6708,72.8944,27.62,79,49,7.3,MV,1734386806
52,stanley,54.868,-1.6985,9.18,82,40,7.2,GB,1734386807
53,iqaluit,63.7506,-68.5145,-19.06,64,100,2.68,CA,1734386810
54,izobil'nyy,45.3709,41.7084,4.28,72,100,15.25,RU,1734386811
55,tiksi,71.6872,128.8694,-25.71,98,60,3.14,RU,1734386812
56,sisimiut,66.9395,-53.6735,-8.17,74,100,6.77,GL,1734386814
57,bucerias,20.75,-105.3333,26.1,78,100,3.6,MX,1734386815
58,seaford,50.7714,0.1027,10.25,92,99,6.02,GB,1734386816
59,aasiaat,68.7098,-52.8699,-16.86,90,100,5.08,GL,1734386818
60,ierapetra,35.01,25.7353,13.41,62,0,6.71,GR,1734386819
61,makurdi,7.7411,8.5121,26.86,22,100,2.47,NG,1734386820
62,ghanzi,-21.5667,21.7833,27.99,40,30,4.83,BW,1734386821
63,chonchi,-42.6128,-73.8092,22.29,59,14,0.75,CL,1734386822
64,at taj,24.2049,23.2857,11.22,35,94,4.97,LY,1734386823
65,utrik,11.2278,169.8474,27.54,85,42,11.05,MH,1734386824
66,novodvinsk,64.4165,40.8122,-23.14,98,100,1.61,RU,1734386825
67,bulayevo,54.9056,70.4439,-4.25,85,100,8.95,KZ,1734386826
68,sur,22.5667,59.5289,21.8,55,0,6.63,OM,1734386828
69,sarpol-e zahab,34.4611,45.8626,6.95,28,100,0.33,IR,1734386829
70,port lincoln,-34.7333,135.8667,18.01,59,1,6.98,AU,1734386830
71,puerto baquerizo moreno,-0.9,-89.6,24.55,83,75,5.14,EC,1734386831
72,kokstad,-30.5472,29.4241,14.4,97,97,0.74,ZA,1734386832
73,sirinhaem,-8.5908,-35.1161,25.84,84,12,2.73,BR,1734386833
74,saldanha,-33.0117,17.9442,16.83,70,36,4.24,ZA,1734386834
75,colonia,50.9333,6.95,10.54,87,100,5.66,DE,1734386835
76,tamanrasset,22.785,5.5228,11.95,14,0,2.57,DZ,1734386837
77,labytnangi,66.6572,66.4183,-30.42,100,24,1.19,RU,1734386839
78,badger,64.8,-147.5333,-16.11,87,75,0.0,US,1734386840
79,georgetown,5.4112,100.3354,27.96,69,20,2.57,MY,1734386841
80,buffalo,42.8865,-78.8784,7.95,81,100,5.14,US,1734386842
81,hithadhoo,-0.6,73.0833,27.58,80,100,7.14,MV,1734386843
82,kangding,30.0513,101.9603,4.39,37,40,3.45,CN,1734386844
83,pariaman,-0.619,100.12,25.03,81,100,1.78,ID,1734386846
84,bredasdorp,-34.5322,20.0403,15.61,68,0,3.09,ZA,1734386847
85,bethel,41.3712,-73.414,6.42,90,100,3.09,US,1734386848
86,papatowai,-46.5619,169.4708,12.02,51,20,5.92,NZ,1734386849
87,petropavlovsk-kamchatsky,53.0452,158.6483,-5.67,63,75,2.0,RU,1734386850
88,afaahiti,-17.75,-149.2833,26.03,77,85,4.54,PF,1734386851
89,portland,45.5234,-122.6762,10.57,90,100,5.14,US,1734386565
90,prince george,53.9166,-122.753,-5.21,97,100,1.34,CA,1734386853
91,fort william,56.8165,-5.1121,11.28,84,98,4.13,GB,1734386854
92,grootfontein,-19.5667,18.1167,26.15,37,58,1.73,NA,1734386856
93,flying fish cove,-10.4217,105.6791,25.82,88,100,2.06,CX,1734386857
94,margaret river,-33.95,115.0667,11.69,83,3,3.94,AU,1734386858
95,labasa,-16.4167,179.3833,29.56,60,50,1.12,FJ,1734386859
96,west island,-12.1568,96.8225,24.99,94,20,1.54,CC,1734386860
97,taltal,-25.4,-70.4833,19.37,74,28,3.77,CL,1734386861
98,saint-joseph,-21.3667,55.6167,23.21,80,26,4.76,RE,1734386862
99,shizilu,35.1711,118.8289,-0.22,42,96,1.77,CN,1734386863
100,nikolayevsk-on-amure,53.1406,140.73,-20.43,97,100,3.97,RU,1734386865
101,ilulissat,69.2167,-51.1,-10.99,62,75,11.83,GL,1734386866
102,ouesso,1.6136,16.0517,23.86,78,100,1.56,CG,1734386867
103,al 'aziziyah,32.9058,45.0616,7.92,25,17,2.9,IQ,1734386868
104,gummi,12.1436,5.1081,21.27,19,13,4.06,NG,1734386869
105,carutapera,-1.195,-46.02,26.7,81,11,4.11,BR,1734386870
106,bireun,5.203,96.7009,25.48,88,100,1.51,ID,1734386871
107,san julian,21.0167,-102.1667,23.88,18,88,1.6,MX,1734386872
108,tofol,5.3248,163.0078,28.88,84,75,4.12,FM,1734386873
109,oranjemund,-28.55,16.4333,15.19,80,0,7.46,NA,1734386875
110,nova sintra,14.8667,-24.7167,25.33,84,100,7.19,CV,1734386876
111,san matias,-16.3667,-58.4,29.96,64,39,2.0,BO,1734386877
112,shenjiamen,29.9576,122.298,7.55,55,1,2.59,CN,1734386878
113,hawaiian paradise park,19.5933,-154.9731,25.5,95,34,0.45,US,1734386879
114,tacoma,47.2529,-122.4443,10.32,84,100,4.12,US,1734386660
115,ola,59.5833,151.2833,-14.19,76,100,5.79,RU,1734386881
116,polyarnyy,69.1989,33.4478,-12.89,88,100,2.88,RU,1734386882
117,poronaysk,49.2167,143.1167,-18.85,97,91,1.51,RU,1734386883
118,longyearbyen,78.2186,15.6401,-9.09,73,0,2.06,SJ,1734386885
119,dryden,49.7833,-92.7503,0.16,100,100,3.6,CA,1734386886
120,kongsvinger,60.1905,11.9977,1.39,75,3,3.3,NO,1734386887
121,jiuquan,39.7432,98.5174,-11.59,47,0,1.9,CN,1734386888
122,ancud,-41.8697,-73.8203,15.96,77,23,5.01,CL,1734386889
123,ha'il,27.5219,41.6907,6.01,36,0,3.09,SA,1734386890
124,pisco,-13.7,-76.2167,22.03,73,0,9.77,PE,1734386891
125,port-cartier,50.0334,-66.8654,-4.3,82,99,1.97,CA,1734386892
126,inari,68.906,27.0288,-12.99,89,100,1.2,FI,1734386895
127,san patricio,28.017,-97.5169,26.97,66,100,4.57,US,1734386896
128,tolanaro,-25.0319,46.9987,24.22,73,8,6.27,MG,1734386897
129,t'ongch'on-up,38.9539,127.8917,-2.66,52,0,3.58,KP,1734386898
130,nemuro,43.3236,145.575,-4.24,61,1,5.85,JP,1734386899
131,khorixas,-20.3667,14.9667,22.98,25,1,3.25,NA,1734386900
132,bargaal,11.2864,51.0773,23.25,73,30,6.11,SO,1734386901
133,totness,5.8833,-56.3167,26.01,87,98,4.99,SR,1734386902
134,wailua homesteads,22.0669,-159.378,25.63,76,0,3.09,US,1734386904
135,kirakira,-10.4544,161.9205,29.6,73,100,1.72,SB,1734386905
136,weno,7.4515,151.8468,26.97,83,100,4.12,FM,1734386906
137,edinburgh of the seven seas,-37.0676,-12.3116,14.39,70,63,3.66,SH,1734386907
138,fale old settlement,-9.3852,-171.2468,26.56,87,98,10.49,TK,1734386908
139,mountain home,43.133,-115.6912,1.75,95,75,8.23,US,1734386909
140,mirpur sakro,24.5474,67.6277,16.62,14,0,1.27,PK,1734386910
141,college,64.8569,-147.8028,-16.06,85,75,0.0,US,1734386911
142,basco,20.4487,121.9702,24.24,78,88,10.04,PH,1734386912
143,hamilton,39.1834,-84.5333,14.87,94,100,6.69,US,1734386914
144,tralee,52.2704,-9.7026,7.65,97,93,2.39,IE,1734386915
145,alice springs,-23.7,133.8833,30.75,40,88,4.63,AU,1734386916
146,lewistown,40.5992,-77.5714,4.23,100,100,0.0,US,1734386917
147,pemangkat,1.1667,108.9667,25.93,87,85,2.51,ID,1734386918
148,lazaro cardenas,17.9583,-102.2,28.19,72,100,4.96,MX,1734386919
149,altay,47.8667,88.1167,-13.9,92,100,0.88,CN,1734386920
150,olivenza,38.6832,-7.103,6.29,64,93,1.27,ES,1734386921
151,kamphaeng phet,16.25,99.5,20.0,81,100,1.41,TH,1734386923
152,kisangani,0.5167,25.2,21.82,95,100,0.57,CD,1734386924
153,ust-nera,64.5667,143.2,-30.64,98,65,0.31,RU,1734386925
154,itamaraca,-7.7478,-34.8256,26.63,81,20,4.3,BR,1734386926
155,jamestown,42.097,-79.2353,5.57,96,100,4.12,US,1734386927
156,kourou,5.1552,-52.6478,24.67,93,90,2.64,GF,1734386928
157,pemba,-12.974,40.5178,27.09,79,3,4.59,MZ,1734386929
158,enewetak,11.3474,162.3373,27.77,85,83,10.87,MH,1734386930
159,vila velha,-20.3297,-40.2925,26.97,88,40,6.69,BR,1734386932
160,kilinochchi,9.3961,80.3982,24.25,94,100,4.11,LK,1734386933
161,san antonio de pale,-1.4014,5.6325,26.66,84,74,2.78,GQ,1734386934
162,battagram,34.6772,73.0233,8.35,21,100,2.02,PK,1734386935
163,tahara,34.6667,137.2667,5.53,50,0,7.5,JP,1734386936
164,kununurra,-15.7667,128.7333,28.99,89,100,0.0,AU,1734386937
165,caruthersville,36.1931,-89.6556,17.75,97,100,1.79,US,1734386938
166,saipan,15.1355,145.701,29.39,77,20,8.75,MP,1734386939
167,visakhapatnam,17.69,83.2093,19.81,63,100,2.8,IN,1734386940
168,namibe,-15.1961,12.1522,21.87,75,29,2.7,AO,1734386942
169,la passe,45.5549,-0.8967,6.36,80,32,3.18,FR,1734386943
170,cianorte,-23.6633,-52.605,21.56,72,0,1.95,BR,1734386944
171,walvis bay,-22.9575,14.5053,15.55,80,1,6.41,NA,1734386945
172,horta,38.5333,-28.6333,15.01,82,20,3.13,PT,1734386946
173,palmer,42.1584,-72.3287,3.8,79,100,2.06,US,1734386735
174,port elizabeth,-33.918,25.5701,18.51,73,100,2.24,ZA,1734386948
175,kerikeri,-35.2268,173.9474,23.84,67,43,5.36,NZ,1734386841
176,hotan,37.0997,79.9269,-5.78,57,9,2.02,CN,1734386951
177,sequeira,40.5536,-7.2259,3.34,74,100,2.88,PT,1734386952
178,cabo san lucas,22.8909,-109.9124,25.17,63,0,4.63,MX,1734386732
179,olonkinbyen,70.9221,-8.7187,-2.12,76,30,4.85,SJ,1734386954
180,darwin,-12.4611,130.8418,29.99,85,100,3.6,AU,1734386764
181,belmonte,-15.8631,-38.8828,25.85,86,100,3.25,BR,1734386956
182,atafu village,-8.5421,-172.5159,25.61,93,100,7.75,TK,1734386957
183,sitka,57.0531,-135.33,3.94,65,75,4.63,US,1734386958
184,brokopondo,4.75,-55.1667,28.23,67,100,3.19,SR,1734386960
185,tabou,4.423,-7.3528,26.87,85,0,3.15,CI,1734386961
186,mariano,8.8333,125.1167,23.7,90,100,1.8,PH,1734386962
187,yanggu,36.1106,115.7753,0.02,34,100,2.7,CN,1734386963
188,la'ie,21.6477,-157.9253,28.66,73,11,2.68,US,1734386964
189,tadine,-21.55,167.8833,28.84,63,42,0.69,NC,1734386965
190,al mutayrifi,25.4788,49.5576,7.19,25,5,4.03,SA,1734386966
191,santa catalina,9.3337,122.8637,25.67,69,92,4.92,PH,1734386967
192,talnakh,69.4865,88.3972,-15.83,89,100,6.59,RU,1734386968
193,tomatlan,19.9333,-105.25,28.66,59,100,4.25,MX,1734386970
194,uturoa,-16.7333,-151.4333,27.24,78,69,4.73,PF,1734386971
195,hawera,-39.5917,174.2833,12.99,66,100,9.14,NZ,1734386973
196,port mathurin,-19.6833,63.4167,25.21,74,41,9.23,MU,1734386974
197,long beach,33.767,-118.1892,20.64,61,0,6.17,US,1734386817
198,tromso,69.6496,18.957,-3.99,74,75,3.09,NO,1734386976
199,belyy yar,53.6039,91.3903,-14.06,72,0,1.0,RU,1734386978
200,sitia,35.2,26.0986,12.81,63,49,11.34,GR,1734386979
201,eirunepe,-6.6603,-69.8736,24.86,88,99,0.91,BR,1734386980
202,laojunmiao,39.8333,97.7333,-11.15,47,0,2.41,CN,1734386981
203,trevelin,-43.0858,-71.4639,20.0,75,100,2.15,AR,1734386982
204,pombas,17.1503,-25.0201,19.5,75,100,3.34,CV,1734386983
205,aleksandrovsk-sakhalinskiy,50.8975,142.1561,-13.03,84,99,5.55,RU,1734386984
206,margate,51.3813,1.3862,9.37,84,100,5.88,GB,1734386985
207,island harbour,50.724,-1.2758,10.57,90,96,0.89,GB,1734386986
208,kuusamo,65.9667,29.1833,-14.98,85,100,4.63,FI,1734386988
209,kodiak,57.79,-152.4072,4.73,87,75,9.26,US,1734386708
210,manzini,-26.25,31.5,21.56,88,91,0.33,SZ,1734386990
211,mwene-ditu,-7.0,23.45,20.15,97,100,1.91,CD,1734386991
212,key biscayne,25.6937,-80.1628,25.57,90,40,4.63,US,1734386992
213,meiganga,6.5167,14.3,21.58,28,100,1.52,CM,1734386993
214,uribia,11.7139,-72.266,30.03,55,49,5.86,CO,1734386994
215,nadym,65.5333,72.5167,-22.06,90,66,5.21,RU,1734386995
216,basoko,1.2391,23.616,24.57,79,97,1.73,CD,1734386996
217,coquimbo,-29.9533,-71.3436,17.85,66,20,5.66,CL,1734386998
218,san luis de la loma,17.2706,-100.8939,28.57,67,34,4.35,MX,1734386999
219,nova vicosa,-17.8919,-39.3719,26.07,82,96,5.28,BR,1734387000
220,bozyazi,36.1082,32.9611,13.14,70,71,3.74,TR,1734387001
221,bitam,2.076,11.5007,21.57,98,100,0.99,GA,1734387002
222,faya-largeau,17.9257,19.1043,17.39,18,75,6.19,TD,1734387003
223,dalbandin,28.8947,64.4101,1.01,30,0,4.47,PK,1734387004
224,dawei,14.0833,98.2,21.26,67,84,2.07,MM,1734387005
225,lihue,21.9789,-159.3672,25.97,78,0,3.09,US,1734387008
226,havre,49.5833,0.3333,8.87,93,100,3.6,FR,1734387009
227,rio preto da eva,-2.6994,-59.6997,27.8,72,98,0.86,BR,1734387010
228,hermanus,-34.4187,19.2345,14.89,68,60,5.39,ZA,1734387011
229,umm ruwaba,12.9061,31.2158,23.08,37,65,4.51,SD,1734387012
230,laguna,38.421,-121.4238,10.98,90,100,3.6,US,1734387013
231,jutai,-5.1833,-68.9,25.58,85,100,2.17,BR,1734387014
232,kingston,17.997,-76.7936,28.53,74,20,6.17,JM,1734387015
233,klaksvik,62.2266,-6.589,6.45,70,85,7.54,FO,1734387017
234,qaqortoq,60.7167,-46.0333,-8.33,80,100,3.06,GL,1734387018
235,litayan,7.3358,124.0347,26.44,76,95,3.24,PH,1734387019
236,monrovia,6.3005,-10.7969,27.41,80,1,4.05,LR,1734387020
237,xining,36.6167,101.7667,-14.92,88,5,1.84,CN,1734387021
238,puerto varas,-41.3195,-72.9854,21.12,52,0,6.17,CL,1734387022
239,ardestan,33.3761,52.3694,2.41,39,99,1.35,IR,1734387023
240,paita,-5.0892,-81.1144,21.08,77,61,6.79,PE,1734387024
241,manturovo,58.3353,44.7619,-6.77,96,99,3.02,RU,1734387025
242,whitehorse,60.7161,-135.0538,-12.57,84,100,1.03,CA,1734387027
243,santa terezinha,-29.9002,-50.0904,20.12,86,97,6.14,BR,1734387028
244,souillac,-20.5167,57.5167,25.21,83,40,5.14,MU,1734387029
245,corumba,-19.0092,-57.6533,33.23,29,0,1.52,BR,1734387030
246,vilyuchinsk,52.9306,158.4028,-4.85,79,100,4.96,RU,1734387031
247,thompson,55.7435,-97.8558,-16.05,85,100,3.07,CA,1734387032
248,anadyr,64.75,177.4833,-6.72,79,100,9.0,RU,1734387033
249,atherton,53.5237,-2.4935,10.14,83,65,1.34,GB,1734387034
250,jaisalmer,26.9147,70.9181,14.0,12,0,2.62,IN,1734387035
251,fort saskatchewan,53.7168,-113.2187,-13.46,97,38,1.21,CA,1734387037
252,ulsteinvik,62.3432,5.8487,5.17,71,100,2.24,NO,1734387038
253,armacao de buzios,-22.7469,-41.8817,22.73,97,99,3.24,BR,1734387001
254,iwaki,37.05,140.8833,7.29,50,9,5.12,JP,1734387040
255,port alfred,-33.5906,26.891,16.77,99,100,2.77,ZA,1734387042
256,kiunga,-6.1219,141.2906,23.66,98,100,1.58,PG,1734387043
257,canutama,-6.5339,-64.3831,22.51,99,100,0.86,BR,1734387044
258,minas de marcona,-15.2119,-75.1103,17.38,75,100,5.66,PE,1734387045
259,dapa,9.7594,126.0531,24.31,87,100,1.13,PH,1734387046
260,gadzhiyevo,69.2551,33.3362,-13.57,91,100,2.84,RU,1734387048
261,'ain benian,36.8028,2.9219,7.03,65,0,3.77,DZ,1734387049
262,acarau,-2.8856,-40.12,26.69,82,24,7.24,BR,1734387050
263,santa cruz del sur,20.7147,-77.9956,26.58,77,37,5.15,CU,1734387051
264,sandnessjoen,66.0217,12.6316,4.12,75,75,6.17,NO,1734387052
265,masterton,-40.9597,175.6575,14.09,56,81,6.99,NZ,1734387053
266,zeya,53.75,127.2667,-24.0,92,80,1.65,RU,1734387054
267,crane,31.3974,-102.3501,20.94,13,0,3.08,US,1734387055
268,kavaratti,10.5669,72.642,26.57,70,56,1.96,IN,1734387056
269,khanpur,28.6453,70.6567,12.98,15,0,2.3,PK,1734387058
270,papao,-17.75,-149.55,29.82,70,90,4.66,PF,1734387059
271,sao felix do xingu,-6.6447,-51.995,23.39,98,100,1.23,BR,1734387060
272,luwingu,-10.2621,29.9271,16.46,96,97,1.3,ZM,1734387061
273,keflavik,64.0049,-22.5624,1.24,75,75,3.6,IS,1734387062
274,neelankarai,12.9455,80.2575,25.03,86,40,3.09,IN,1734387063
275,sucua,-2.4667,-78.1667,25.41,69,40,4.63,EC,1734387064
276,sainte-livrade-sur-lot,44.3993,0.5912,1.06,76,67,2.25,FR,1734387065
277,vylkove,45.4021,29.586,6.97,72,99,5.81,UA,1734387066
278,cortez,37.3489,-108.5859,10.39,30,0,4.63,US,1734387068
279,khandyga,62.6667,135.6,-37.52,98,38,1.14,RU,1734387069
280,vorgashor,67.5833,63.95,-28.13,100,98,1.68,RU,1734387070
281,mildura,-34.2,142.15,19.48,54,0,9.45,AU,1734387072
282,dunedin,-45.8742,170.5036,10.98,58,14,5.44,NZ,1734387073
283,rongelap,11.1635,166.8941,27.67,85,5,10.92,MH,1734387074
284,lensk,60.7253,114.9278,-17.0,90,68,2.89,RU,1734387075
285,kruisfontein,-34.0033,24.7314,13.93,78,26,2.81,ZA,1734387077
286,south sioux city,42.4739,-96.4136,8.97,28,0,8.75,US,1734386929
287,evanston,42.0411,-87.6901,8.31,83,100,7.2,US,1734387079
288,hoopeston,40.4673,-87.6684,13.33,74,18,8.51,US,1734387080
289,nueva helvecia,-34.3,-57.2333,22.55,56,0,6.37,UY,1734387081
290,lionel town,17.8101,-77.2406,26.53,79,9,2.75,JM,1734387082
291,manaure,11.7751,-72.4445,29.78,61,82,4.81,CO,1734387083
292,ebon,4.582,168.6964,28.01,79,72,6.57,MH,1734387084
293,el campo,29.1966,-96.2697,26.99,54,0,3.6,US,1734387085
294,trairi,-3.2778,-39.2689,26.53,82,22,4.52,BR,1734387087
295,tambacounda,13.7539,-13.7586,27.82,11,83,3.89,SN,1734387088
296,queenstown,-31.8976,26.8753,14.34,89,100,1.7,ZA,1734387089
297,northam,51.0333,-4.2167,10.08,88,100,3.63,GB,1734387090
298,barclayville,4.6797,-8.2339,26.18,87,0,1.58,LR,1734387091
299,dharmanagar,24.3667,92.1667,12.07,85,0,0.87,IN,1734387092
300,bubaque,11.2833,-15.8333,26.58,73,100,5.77,GW,1734387093
301,homer,59.6425,-151.5483,2.8,86,40,2.06,US,1734387094
302,port-vila,-17.7338,168.3219,29.78,74,40,3.6,VU,1734387097
303,lorengau,-2.0226,147.2712,28.46,76,68,2.42,PG,1734387098
304,matoury,4.8483,-52.3317,27.98,78,40,2.06,GF,1734387099
305,akureyri,65.6835,-18.0878,-6.17,89,97,2.95,IS,1734387100
306,ta'if,21.2703,40.4158,11.56,51,0,0.78,SA,1734387101
307,kichmengskiy gorodok,59.9816,45.7854,-10.3,98,97,1.67,RU,1734387102
308,funafuti,-8.5243,179.1942,28.0,89,100,5.14,TV,1734387103
309,severo-yeniseyskiy,60.3725,93.0408,-16.45,89,100,5.42,RU,1734387104
310,sechura,-5.5569,-80.8222,25.02,58,77,7.98,PE,1734387105
311,monticello,45.3055,-93.7941,1.23,83,100,9.26,US,1734387107
312,puerto madero,14.7208,-92.4215,30.11,66,20,4.12,MX,1734387108
313,alotau,-10.3069,150.4462,27.43,84,97,1.97,PG,1734387109
314,olinda,-8.0089,-34.8553,27.85,78,40,4.63,BR,1734387110
315,chichiriviche,10.9333,-68.2772,27.53,80,100,4.56,VE,1734387111
316,aral,40.5156,81.2636,-6.99,86,11,4.21,CN,1734387113
317,conduaga,8.862,117.4893,25.03,87,98,1.65,PH,1734387114
318,akonolinga,3.7667,12.25,23.27,59,100,1.39,CM,1734387116
319,brookings,44.3114,-96.7984,0.1,75,100,11.83,US,1734387039
320,serenje,-13.2325,30.2352,17.54,91,93,1.95,ZM,1734387118
321,swakopmund,-22.6833,14.5333,15.55,80,4,2.24,NA,1734387119
322,punta arenas,-53.15,-70.9167,19.06,45,0,5.14,CL,1734387120
323,rio grande,-32.035,-52.0986,19.82,72,10,7.3,BR,1734387121
324,luorong,24.4058,109.6086,8.83,42,0,1.45,CN,1734387122
325,tughyl,47.7252,84.2063,-16.68,80,0,1.89,KZ,1734387123
326,tirhanimine,35.2362,-3.9545,13.4,53,19,2.94,MA,1734387124
327,east london,-33.0153,27.9116,19.33,89,100,1.82,ZA,1734387125
328,lompoc,34.6391,-120.4579,15.07,64,0,5.14,US,1734387127
329,taulaga,-11.0553,-171.0883,27.85,79,66,7.21,AS,1734387128
330,egilsstadir,65.2653,-14.3948,-5.17,92,84,3.17,IS,1734387129
331,mugia,43.1041,-9.2179,13.47,67,100,6.28,ES,1734387130
332,corner brook,48.9667,-57.9484,-2.14,93,99,2.02,CA,1734387131
333,pindiga,9.9833,10.9333,21.29,23,98,3.71,NG,1734387132
334,shahr-e babak,30.1165,55.1186,0.4,31,0,2.48,IR,1734387133
335,nioki,-2.7167,17.6833,22.31,95,100,1.22,CD,1734387134
336,pasto,1.2136,-77.2811,13.09,91,99,1.06,CO,1734387137
337,mount gambier,-37.8333,140.7667,17.13,54,0,5.87,AU,1734386869
338,mek'ele,13.4967,39.4753,12.63,62,87,3.42,ET,1734387139
339,usogorsk,63.4106,48.6872,-16.62,97,97,2.57,RU,1734387140
340,nuuk,64.1835,-51.7216,-3.66,93,100,14.92,GL,1734387141
341,millville,39.4021,-75.0393,9.94,96,100,0.0,US,1734387142
342,carnarvon,-24.8667,113.6333,25.1,64,0,8.52,AU,1734387143
343,tura,25.5198,90.2201,13.97,50,0,1.61,IN,1734387144
344,sinalunga,43.2152,11.7495,5.09,89,0,0.88,IT,1734387146
345,baruun-urt,46.6806,113.2792,-15.99,89,5,2.04,MN,1734387147
346,shimonoseki,33.95,130.95,10.19,48,100,7.22,JP,1734387148
347,lebu,-37.6167,-73.65,16.24,76,4,4.0,CL,1734387149
348,rocky mount,35.9382,-77.7905,13.88,82,0,0.0,US,1734387150
349,corbu,44.3833,28.65,5.63,81,0,7.2,RO,1734387151
350,bam,29.106,58.357,1.91,27,0,0.7,IR,1734387152
351,nema,57.5067,50.5011,-6.38,95,98,3.9,RU,1734387153
352,suwayr,30.1171,40.3893,7.97,17,90,2.3,SA,1734387154
353,sekong,-6.3996,106.0252,23.8,96,89,1.33,ID,1734387156
354,las tablas,7.7667,-80.2833,27.32,99,47,4.78,PA,1734387157
355,broken hill,-31.95,141.4333,21.63,39,94,12.11,AU,1734387158
356,westport,41.1415,-73.3579,8.34,92,100,5.36,US,1734387159
357,illizi,26.4833,8.4667,14.42,51,66,6.79,DZ,1734387160
358,igarka,67.4667,86.5833,-18.03,92,100,8.05,RU,1734387161
359,siwa oasis,29.2041,25.5195,15.0,46,100,2.99,EG,1734387162
360,colac,-38.3333,143.5833,16.31,65,75,5.57,AU,1734387163
361,labrador city,52.9463,-66.9114,-4.34,78,100,5.14,CA,1734387164
362,kholmsk,47.0511,142.0569,-10.56,78,92,2.64,RU,1734387165
363,tubarjal,30.4999,38.216,8.2,20,100,1.76,SA,1734387167
364,xichang,27.8964,102.2634,4.68,88,0,0.51,CN,1734387168
365,jiayuguan,39.8167,98.3,-12.59,48,0,2.3,CN,1734387169
366,ribeira brava,32.65,-17.0667,22.29,64,63,2.76,PT,1734387170
367,teguise,29.0605,-13.564,19.12,52,59,2.57,ES,1734387171
368,moree,-29.4667,149.85,27.49,54,0,5.15,AU,1734387172
369,heihe,50.2441,127.4902,-22.68,98,7,1.99,CN,1734387173
370,pathein,16.7833,94.7333,21.81,71,77,2.72,MM,1734387174
371,praia da vitoria,38.7333,-27.0667,15.41,76,44,5.06,PT,1734387175
372,tokar,18.4254,37.729,26.64,72,7,6.05,SD,1734387176
373,el calafate,-50.3408,-72.2768,19.69,44,19,3.32,AR,1734387178
374,kone,-21.0595,164.8658,32.18,52,73,0.56,NC,1734387179
375,pacific grove,36.6177,-121.9166,14.1,86,100,8.49,US,1734387180
376,xiva,41.3783,60.3639,-1.31,68,100,6.26,UZ,1734387181
377,geraldton,-28.7667,114.6,14.23,82,0,3.6,AU,1734387123
378,mumbai,19.0144,72.8479,21.99,60,0,0.0,IN,1734387183
379,las lomitas,-24.7096,-60.593,30.37,36,8,2.3,AR,1734387184
380,sao vicente,-23.9631,-46.3919,26.66,26,0,1.88,BR,1734387185
381,zouerate,22.7187,-12.4521,21.78,13,99,7.49,MR,1734387186
382,selkirk,50.1436,-96.8845,-4.9,92,100,4.47,CA,1734387187
383,cole harbour,44.6724,-63.4751,1.07,78,0,3.6,CA,1734387188
384,tayaman,13.2295,120.5726,24.93,81,100,6.07,PH,1734387191
385,sarov,54.9358,43.3235,-2.89,96,100,5.58,RU,1734387193
386,el granada,37.5027,-122.4694,13.68,94,100,7.72,US,1734387195
387,baikonur,45.6167,63.3167,-6.16,67,44,6.62,KZ,1734387196
388,christchurch,-43.5333,172.6333,15.53,58,75,3.6,NZ,1734387100
389,diu,20.7141,70.9822,19.72,30,0,2.74,IN,1734387199
390,saynshand,44.8824,110.1163,-9.92,71,1,2.31,MN,1734387200
391,midvagur,62.0511,-7.1939,5.46,81,40,6.69,FO,1734387201
392,trancas,-26.2314,-65.2803,24.98,53,98,1.65,AR,1734387202
393,paka,4.6374,103.4368,26.66,83,100,2.57,MY,1734387203
394,olyokminsk,60.3736,120.4264,-26.98,100,56,1.68,RU,1734387204
395,envira,-7.3,-70.2167,22.33,100,100,0.81,BR,1734387205
396,phirangipuram,16.3,80.2667,16.97,78,100,1.16,IN,1734387207
397,mersa matruh,31.3525,27.2453,17.37,77,8,5.55,EG,1734387208
398,mahenge,-8.6833,36.7167,18.13,97,76,1.46,TZ,1734387209
399,alaghsas,17.0187,8.0168,17.99,14,27,5.05,NE,1734387210
400,constitucion,-35.3333,-72.4167,16.47,72,2,4.68,CL,1734387211
401,barcelos,41.5388,-8.6151,8.21,67,100,2.57,PT,1734387212
402,revda,56.801,59.9303,-3.64,88,100,5.78,RU,1734387213
403,sao gabriel da cachoeira,-0.1303,-67.0892,27.6,79,90,1.14,BR,1734387214
404,ar ruseris,11.8659,34.3869,28.17,33,53,4.03,SD,1734387215
405,shar,49.5886,81.0453,-20.27,92,7,2.87,KZ,1734387217
406,inebolu,41.9747,33.7608,5.81,71,78,3.41,TR,1734387218
407,ntoum,0.3833,9.7833,24.98,94,100,0.22,GA,1734387219
408,broome,42.2506,-75.833,5.74,91,100,5.14,US,1734387220
409,ambon,-3.6954,128.1814,28.46,100,40,2.57,ID,1734387221
410,bathsheba,13.2167,-59.5167,28.34,78,40,5.66,BB,1734387222
411,okha,53.5739,142.9478,-3.63,96,100,10.7,RU,1734387226
412,fort st. john,56.2499,-120.8529,-20.94,90,100,2.11,CA,1734387227
413,burang,30.25,81.1667,-4.9,31,36,3.61,CN,1734387229
414,champerico,14.3,-91.9167,28.25,66,11,3.9,GT,1734387230
415,mount isa,-20.7333,139.5,30.87,66,4,2.57,AU,1734387231
416,capitao poco,-1.7464,-47.0594,29.09,59,85,4.34,BR,1734387232
417,qui nhon,13.7667,109.2333,20.64,90,100,5.59,VN,1734387233
418,kilindoni,-7.9139,39.6668,27.81,77,28,5.05,TZ,1734387234
419,neiafu,-18.65,-173.9833,28.38,65,20,3.09,TO,1734387236
420,leulumoega,-13.823,-171.9613,29.94,66,75,1.79,WS,1734387237
421,taihecun,45.8,130.85,-20.67,100,100,0.43,CN,1734387238
422,maralal,1.0968,36.698,14.46,79,32,2.13,KE,1734387239
423,pitimbu,-7.4706,-34.8086,26.76,81,21,4.88,BR,1734387240
424,selfoss,63.9331,-20.9971,0.02,89,100,2.53,IS,1734387241
425,awjilah,29.1081,21.2869,13.57,46,7,2.91,LY,1734387242
426,siyabuswa,-25.1132,29.0445,26.88,48,84,1.67,ZA,1734387243
427,fort bragg,35.139,-79.006,17.17,76,0,0.0,US,1734387244
428,arvayheer,46.2639,102.775,-12.84,57,0,2.74,MN,1734387245
429,mammoth lakes,37.6485,-118.9721,7.4,25,0,11.32,US,1734387247
430,aioun,16.6614,-9.6149,23.13,10,22,6.74,MR,1734387248
431,harstad,68.799,16.5293,-2.14,94,100,0.45,NO,1734387249
432,berber,18.0216,33.983,22.05,48,3,4.15,SD,1734387250
433,nakhon sawan,15.7,100.0833,20.26,66,96,1.07,TH,1734387251
434,kujang-up,39.8672,126.0303,-5.96,60,0,0.57,KP,1734387252
435,usinsk,65.9939,57.5281,-21.49,95,70,4.75,RU,1734387253
436,al jawf,29.5,38.75,10.4,27,100,2.28,SA,1734387254
437,le port,-20.9373,55.2919,24.98,83,27,2.44,RE,1734387255
438,imbituba,-28.24,-48.6703,20.91,79,34,7.39,BR,1734387256
439,thulamahashi,-24.7246,31.1994,23.34,81,72,4.12,ZA,1734387258
440,sungai penuh,-2.0833,101.3833,18.97,83,96,1.33,ID,1734387260
441,male,4.1748,73.5089,25.97,94,100,4.63,MV,1734387261
442,red hill,33.9996,-79.2581,19.36,45,88,2.69,US,1734387262
443,aracruz,-19.8203,-40.2733,24.5,95,94,1.47,BR,1734387263
444,timbuktu,16.7735,-3.0074,21.96,9,10,4.21,ML,1734387264
445,kande,9.9578,1.0447,23.89,17,0,2.53,TG,1734387265
446,apia,-13.8333,-171.7667,29.95,71,58,1.08,WS,1734387266
447,cuatro cienegas de carranza,26.9833,-102.0833,24.6,49,2,4.16,MX,1734387268
448,santana,-0.0583,-51.1817,29.1,74,20,5.66,BR,1734387269
449,quellon,-43.1167,-73.6167,17.28,74,46,3.87,CL,1734387270
450,jabat,7.75,168.9751,27.76,83,35,10.99,MH,1734387272
451,argo,37.6333,22.7333,7.91,69,0,1.68,GR,1734387273
452,port isabel,26.0734,-97.2086,28.02,70,75,6.17,US,1734387274
453,cooper's town,26.8667,-77.5167,23.53,85,0,10.1,BS,1734387275
454,san antonio,29.4241,-98.4936,26.86,61,20,3.6,US,1734387276
455,guarapuava,-25.3953,-51.4581,16.55,80,0,1.46,BR,1734387277
456,hays,30.0502,-98.0336,24.95,73,100,2.31,US,1734387279
457,shiyan,32.6475,110.7781,3.3,56,23,1.65,CN,1734387280
458,fatehganj west,28.4667,79.3,12.35,42,0,0.38,IN,1734387281
459,huaidian,33.4333,115.0333,0.83,33,0,2.35,CN,1734387282
460,chinde,26.8212,87.7095,14.25,64,3,2.44,NP,1734387283
461,timmins,48.4669,-81.3331,1.9,93,100,6.17,CA,1734387284
462,les anglais,18.3054,-74.2197,25.35,81,10,2.82,HT,1734387285
463,shahin dezh,36.6793,46.5669,-0.12,40,100,2.43,IR,1734387286
464,mendi,-6.1761,143.6513,15.79,89,99,0.42,PG,1734387287
465,vadso,70.0744,29.7487,-7.91,73,40,7.72,NO,1734387288
466,amarkantak,22.6667,81.75,7.97,33,0,0.99,IN,1734387290
467,willowmore,-33.2926,23.4895,13.39,68,43,2.76,ZA,1734387291
468,letlhakeng,-24.0944,25.0298,24.76,55,99,3.29,BW,1734387292
469,tazacorte,28.629,-17.9293,25.54,23,0,9.26,ES,1734387293
470,ataq,14.5377,46.8319,12.85,49,0,3.0,YE,1734387294
471,madras,13.0878,80.2785,24.99,86,40,3.09,IN,1734387063
472,mata-utu,-13.2816,-176.1745,27.74,76,93,2.96,WF,1734387296
473,ritterhude,53.1811,8.7216,9.92,85,75,8.75,DE,1734387297
474,cruzeiro do sul,-29.5128,-51.9853,21.4,92,68,1.7,BR,1734387300
475,saudarkrokur,65.7461,-19.6394,-2.47,95,97,3.3,IS,1734387301
476,quezon,7.7303,125.0989,20.87,92,100,2.14,PH,1734387302
477,luderitz,-26.6481,15.1594,15.7,65,0,10.47,NA,1734387303
478,kabalo,-6.05,26.9167,21.81,96,100,0.21,CD,1734387304
479,salalah,17.0151,54.0924,21.05,28,0,6.69,OM,1734387305
480,palikir - national government center,6.9248,158.1611,29.41,79,100,2.57,FM,1734387306
481,chimore,-16.9833,-65.1333,31.55,45,32,0.28,BO,1734387307
482,motomachi,43.8228,144.1044,-5.5,61,64,4.1,JP,1734387309
483,segou,13.4317,-6.2157,23.72,11,13,4.42,ML,1734387310
484,al kharijah,25.4514,30.5464,13.59,25,80,3.92,EG,1734387311
485,garachico,28.7781,-17.7646,24.06,19,0,9.26,ES,1734387312
486,luganville,-15.5333,167.1667,29.0,73,62,3.15,VU,1734387313
487,nurota,40.5614,65.6886,-6.36,61,0,3.15,UZ,1734387314
488,kudymkar,59.0173,54.656,-6.5,96,100,2.3,RU,1734387315
489,mangalia,43.8,28.5833,7.04,69,76,7.24,RO,1734387317
490,grand falls-windsor,48.9332,-55.6649,0.28,70,73,0.89,CA,1734387318
491,la ferte-saint-aubin,47.7169,1.939,7.76,96,48,1.04,FR,1734387319
492,kerrville,30.0474,-99.1403,22.78,77,100,2.06,US,1734387179
493,tortum,40.2973,41.5477,-7.14,87,4,4.27,TR,1734387321
494,happy valley-goose bay,53.3168,-60.3315,1.17,55,100,6.69,CA,1734387322
495,kamina,-8.7386,24.9906,18.56,97,100,1.95,CD,1734387323
496,pudasjarvi,65.3833,26.9167,-12.22,90,100,3.13,FI,1734387324
497,araure,9.5601,-69.2148,28.88,55,98,0.56,VE,1734387325
498,san luis potosi,22.5,-100.5,21.78,37,57,4.75,MX,1734387307
499,butwal,27.7006,83.4484,14.8,55,0,1.97,NP,1734387328
500,ust'-kalmanka,52.1207,83.305,-19.77,92,7,1.65,RU,1734387329
501,yuktae-dong,40.0247,128.1597,-3.18,37,0,1.96,KP,1734387330
502,vicuna,-30.0319,-70.7081,29.87,38,4,2.68,CL,1734387331
503,tyup,42.7276,78.3648,-14.04,84,27,2.57,KG,1734387332
504,machico,32.7,-16.7667,21.67,79,40,7.2,PT,1734387333
505,nar'yan-mar,67.6713,53.087,-23.23,94,9,2.94,RU,1734387334
506,sarupathar,26.1984,93.8094,12.07,81,0,0.88,IN,1734387335
507,west bay,19.3667,-81.4167,27.25,86,86,8.7,KY,1734387336
508,rebola,3.7167,8.8333,25.76,75,100,0.63,GQ,1734387338
509,shahjanpur,27.8833,79.9167,12.37,37,1,0.2,IN,1734387339
510,heilbronn,49.1403,9.22,8.74,87,56,3.63,DE,1734387340
511,koumra,8.9126,17.5539,23.91,19,64,2.03,TD,1734387341
512,port hedland,-20.3167,118.5667,28.03,78,20,6.17,AU,1734387342
513,kingsford,-33.924,151.2275,29.37,70,0,4.12,AU,1734387241
514,mutoko,-17.397,32.2268,18.34,87,100,2.21,ZW,1734387344
515,yanchep,-31.55,115.6833,18.23,57,0,6.14,AU,1734387345
516,new norfolk,-42.7826,147.0587,17.73,65,65,4.21,AU,1734387072
517,peterhead,57.5058,-1.7981,9.15,86,100,3.4,GB,1734387347
518,khedbrahma,24.0333,73.05,14.82,23,1,1.62,IN,1734387349
519,chazuta,-6.5742,-76.1367,27.47,76,88,1.3,PE,1734387350
520,klyuchi,52.2667,79.1667,-14.41,85,41,5.29,RU,1734387351
521,nadi,-17.8,177.4167,29.0,65,20,3.6,FJ,1734387353
522,petropavlovka,50.6114,105.3196,-18.08,95,21,1.11,RU,1734387354
523,naze,28.3667,129.4833,10.51,64,0,2.99,JP,1734387355
524,fuglafjordur,62.244,-6.814,5.27,74,80,6.6,FO,1734387357
525,tome acu,-2.4189,-48.1522,28.72,57,85,1.33,BR,1734387358
526,kailua-kona,19.6406,-155.9956,29.2,57,0,6.17,US,1734387182
527,gaspe,48.8334,-64.4819,-4.88,74,0,1.54,CA,1734387360
528,maues,-3.3836,-57.7186,24.95,94,100,1.33,BR,1734387361
529,guapi,2.5708,-77.8854,27.99,78,40,1.91,CO,1734387362
530,bowen,-20.0167,148.2333,27.11,73,18,0.88,AU,1734387363
531,alta,69.9689,23.2717,-9.41,73,40,12.96,NO,1734387364
532,sidi khaled,34.387,4.9879,9.09,51,0,2.54,DZ,1734387365
533,aver-o-mar,41.4078,-8.7812,12.31,54,0,5.14,PT,1734387366
534,taroa,8.7058,171.2275,27.68,85,99,10.82,MH,1734387368
535,lawas,13.764,121.0566,24.46,87,99,2.23,PH,1734387369
536,fremantle,-32.05,115.7667,18.86,62,0,6.69,AU,1734387370
537,port blair,11.6667,92.75,28.02,83,75,6.14,IN,1734387371
538,simanggang,1.2472,111.4528,23.99,100,100,0.0,MY,1734387372
539,wakkanai,45.4094,141.6739,-5.6,72,99,4.27,JP,1734387373
540,amasra,41.7463,32.3863,7.12,80,82,5.63,TR,1734387374
541,la ronge,55.1001,-105.2842,-11.86,79,100,4.63,CA,1734387375
542,gangawati,15.4333,76.5333,16.68,55,81,1.78,IN,1734387376
543,horten,59.4155,10.4853,7.45,72,2,0.89,NO,1734387378
544,amahai,-3.3333,128.9167,26.74,78,98,1.89,ID,1734387379
545,bougouni,11.417,-7.479,22.74,15,1,2.61,ML,1734387380
546,kadur,13.5533,76.0131,15.56,77,90,1.22,IN,1734387381
547,saint-philippe,-21.3585,55.7679,24.54,82,30,4.8,RE,1734387382
548,arkhangel'sk,64.5401,40.5433,-22.94,77,75,4.0,RU,1734387383
549,kegen,43.0197,79.2203,-21.17,93,29,3.02,KZ,1734387384
550,sicuani,-14.2694,-71.2261,11.47,77,100,3.32,PE,1734387385
551,jincheng,35.5022,112.8328,0.34,23,1,0.93,CN,1734387386
552,hastings,50.8552,0.5729,9.54,47,98,5.62,GB,1734387387
553,princeville,45.7668,-61.2985,0.39,72,2,2.05,CA,1734387389
554,howrah,22.5892,88.3103,16.0,82,6,0.0,IN,1734387390
555,shush,32.1942,48.2436,11.0,22,0,3.09,IR,1734387391
556,skadovs'k,46.1161,32.9112,8.76,73,100,11.93,UA,1734387392
557,qamdo,31.1667,97.2333,-4.98,41,56,2.05,CN,1734387393
558,contai,21.7786,87.7536,15.95,43,46,2.65,IN,1734387394
559,corinto,37.9407,22.9573,6.61,66,0,0.86,GR,1734387395
560,shizuishan,39.2333,106.7694,-6.0,26,0,2.17,CN,1734387396
561,sabha,27.0377,14.4283,12.1,71,0,5.35,LY,1734387397
562,idaho falls,43.4666,-112.0341,0.01,87,100,0.0,US,1734387399
563,labuan,5.2767,115.2417,26.2,94,20,0.0,MY,1734387400
564,bel ombre,-4.6167,55.4167,24.91,94,40,0.51,SC,1734387401
565,lata,40.1629,-8.3327,6.4,70,100,2.22,PT,1734387402
566,kokoda,-8.8785,147.7407,26.78,86,100,0.43,PG,1734387403
567,tymovskoye,50.8456,142.655,-17.47,97,100,0.84,RU,1734387404
568,robore,-18.3333,-59.75,30.3,43,5,1.52,BO,1734387405
569,eyl,7.9803,49.8164,23.46,69,55,9.51,SO,1734387406
570,lauro de freitas,-12.8944,-38.3272,27.01,83,40,6.69,BR,1734387407
571,lucapa,-8.4192,20.7447,20.17,97,100,1.3,AO,1734387409
572,kolonia,50.9333,6.95,10.54,87,100,5.66,DE,1734387365
573,los alamos,35.8881,-106.307,9.05,17,75,0.45,US,1734387411
574,whakatane,-37.9585,176.9854,21.95,67,60,4.92,NZ,1734387412
575,pala,9.3642,14.9046,23.87,16,100,3.61,TD,1734387413
576,villa emilio carranza,19.9667,-96.6,25.14,75,99,4.55,MX,1734387414
577,uenohara,35.6167,139.1167,1.71,60,1,2.62,JP,1734387415
578,berezovyy,51.6667,135.7,-24.46,93,85,1.25,RU,1734387416
579,gokarna,14.55,74.3167,22.26,52,3,4.39,IN,1734387417
