City_ID,City,Lat,Lng,Max Temp,Humidity,Cloudiness,Wind Speed,Country,Date
0,hamilton,39.1834,-84.5333,8.76,80,100,3.6,US,1735615945
1,conde,-7.2597,-34.9075,25.7,83,40,2.57,BR,1735615946
2,invercargill,-46.4,168.35,16.68,71,14,2.24,NZ,1735615947
3,jiuquan,39.7432,98.5174,-1.11,24,22,1.98,CN,1735615948
4,ihosy,-22.4,46.1167,21.45,85,79,2.7,MG,1735615949
5,atafu village,-8.5421,-172.5159,28.37,74,100,3.54,TK,1735615950
6,blackmans bay,-43.0167,147.3167,21.4,49,62,0.45,AU,1735615952
7,gobabis,-22.45,18.9667,20.44,63,100,4.51,NA,1735615953
8,niquero,20.0431,-77.5828,23.14,84,92,2.89,CU,1735615954
9,hobyo,5.3505,48.5268,24.81,70,57,7.02,SO,1735615955
10,bethel,41.3712,-73.414,8.46,67,0,3.09,US,1735615956
11,uturoa,-16.7333,-151.4333,27.99,71,27,2.36,PF,1735615957
12,viedma,-40.8135,-62.9967,20.38,75,38,6.93,AR,1735615958
13,iqaluit,63.7506,-68.5145,-25.15,69,0,1.54,CA,1735615959
14,karratha,-20.7377,116.8463,36.84,39,23,4.82,AU,1735615960
15,port-aux-francais,-49.35,70.2167,4.24,68,75,12.02,TF,1735615962
16,abdulino,53.7,53.6667,-6.8,94,99,8.47,RU,1735615963
17,ushuaia,-54.8,-68.3,8.81,93,100,1.54,AR,1735615964
18,thompson,55.7435,-97.8558,-4.91,100,100,2.06,CA,1735615965
19,adamstown,-25.066,-130.1015,22.67,89,100,5.94,PN,1735615966
20,askiz,53.1319,90.5264,-14.2,91,43,2.42,RU,1735615967
21,west island,-12.1568,96.8225,28.99,70,36,3.6,CC,1735615968
22,kodiak,57.79,-152.4072,3.73,93,100,13.38,US,1735615969
23,vershino-darasunskiy,52.35,115.5167,-13.93,76,25,1.51,RU,1735615970
24,vorgashor,67.5833,63.95,-7.11,85,100,7.31,RU,1735615971
25,talnakh,69.4865,88.3972,-19.57,97,92,5.26,RU,1735615973
26,edinburgh of the seven seas,-37.0676,-12.3116,17.23,93,94,11.98,SH,1735615974
27,albany,42.6001,-73.9662,7.23,66,84,1.79,US,1735615976
28,jamestown,42.097,-79.2353,1.34,99,75,3.09,US,1735615852
29,hithadhoo,-0.6,73.0833,26.65,74,75,4.69,MV,1735615978
30,buka,40.8108,69.1986,5.4,87,98,0.86,UZ,1735615979
31,santo antonio do ica,-3.1022,-67.9397,22.96,99,100,0.72,BR,1735615982
32,utrik,11.2278,169.8474,26.82,78,63,6.81,MH,1735615983
33,inda chhoi,29.6402,75.7888,13.88,36,79,1.8,IN,1735615985
34,san ignacio,17.1561,-89.0714,24.08,94,40,0.0,BZ,1735615986
35,vilyuchinsk,52.9306,158.4028,-4.85,76,99,4.72,RU,1735615987
36,tura,25.5198,90.2201,22.04,44,0,1.4,IN,1735615988
37,rustaq,23.3908,57.4244,21.34,43,92,0.7,OM,1735615989
38,natal,-5.795,-35.2094,27.12,78,40,4.12,BR,1735615990
39,puerto natales,-51.7236,-72.4875,11.78,87,100,0.81,CL,1735615992
40,olonkinbyen,70.9221,-8.7187,-5.66,70,100,12.64,SJ,1735615993
41,lata,40.1629,-8.3327,3.47,89,4,1.62,PT,1735615994
42,carnarvon,-24.8667,113.6333,29.65,60,72,6.04,AU,1735615995
43,ribeira grande,38.5167,-28.7,18.76,89,100,12.07,PT,1735615996
44,kolonia,50.9333,6.95,0.54,90,100,3.6,DE,1735615997
45,mizdah,31.4451,12.9801,7.92,94,19,3.06,LY,1735615998
46,grytviken,-54.2811,-36.5092,6.21,78,93,4.31,GS,1735615999
47,nova sintra,14.8667,-24.7167,25.1,77,84,4.28,CV,1735616000
48,sur,22.5667,59.5289,20.95,60,75,3.81,OM,1735616001
49,papatowai,-46.5619,169.4708,14.22,72,36,3.56,NZ,1735616003
50,tiksi,71.6872,128.8694,-35.39,97,95,0.39,RU,1735616004
51,georgetown,5.4112,100.3354,28.97,61,20,3.6,MY,1735616005
52,nea alikarnassos,35.3333,25.1667,12.82,71,40,8.75,GR,1735616006
53,susuman,62.7833,148.1667,-27.36,98,100,1.15,RU,1735616007
54,waitangi,-43.9535,-176.5597,16.57,97,100,2.24,NZ,1735616008
55,sherpur,25.0188,90.0175,21.92,52,0,4.32,BD,1735616009
56,wailua homesteads,22.0669,-159.378,24.44,80,40,6.17,US,1735616010
57,chonchi,-42.6128,-73.8092,8.4,84,28,1.8,CL,1735616011
58,nabire,-3.3667,135.4833,28.21,77,100,1.69,ID,1735616012
59,morococha,-11.5997,-76.1411,2.33,84,100,1.31,PE,1735616014
60,kailua-kona,19.6406,-155.9956,27.38,75,0,4.63,US,1735616015
61,codrington,-38.2667,141.9667,20.3,62,4,6.15,AU,1735616016
62,fort bragg,35.139,-79.006,8.78,90,0,0.0,US,1735616017
63,bilibino,68.0546,166.4372,-21.19,81,71,2.64,RU,1735616018
64,hami,42.8,93.45,-8.25,47,84,1.92,CN,1735616019
65,bani,18.2833,-70.3333,20.89,86,97,3.73,DO,1735616020
66,whitehorse,60.7161,-135.0538,-11.57,85,75,2.06,CA,1735616021
67,san matias,-16.3667,-58.4,23.17,59,61,2.44,BO,1735616022
68,saipan,15.1355,145.701,28.39,82,40,6.69,MP,1735616024
69,haiku-pauwela,20.9219,-156.3051,25.12,75,20,10.8,US,1735616025
70,dudinka,69.4058,86.1778,-16.78,92,100,9.73,RU,1735616026
71,santana,-0.0583,-51.1817,25.1,94,0,2.06,BR,1735616027
72,bodo,67.28,14.405,-0.68,97,75,6.69,NO,1735616028
73,constantia,44.1833,28.65,0.39,83,0,3.31,RO,1735616029
74,margaret river,-33.95,115.0667,27.52,40,42,5.98,AU,1735616030
75,vorzel',50.5444,30.153,2.37,86,100,5.37,UA,1735616031
76,mount pearl,47.5166,-52.7813,0.64,95,100,2.06,CA,1735616032
77,college,64.8569,-147.8028,-26.03,67,0,1.54,US,1735616033
78,lebu,-37.6167,-73.65,13.14,80,76,6.5,CL,1735616035
79,okhotsk,59.3833,143.3,-29.97,76,0,5.06,RU,1735616036
80,maintirano,-18.0667,44.0167,26.16,81,99,1.41,MG,1735616037
81,puerto deseado,-47.7503,-65.8938,12.69,83,99,2.14,AR,1735616038
82,nantucket,41.2835,-70.0995,8.06,87,0,7.3,US,1735616039
83,stanley,54.868,-1.6985,9.01,84,40,3.09,GB,1735616040
84,yuzhno-kurilsk,44.0306,145.8556,-2.59,86,100,7.11,RU,1735616041
85,port mathurin,-19.6833,63.4167,25.4,70,17,7.01,MU,1735616042
86,anadyr,64.75,177.4833,-5.72,79,40,20.0,RU,1735616043
87,wroughton,51.5241,-1.7956,8.71,83,100,4.63,GB,1735616044
88,nuwara eliya,6.9708,80.7829,14.36,99,100,2.25,LK,1735616046
89,petropavlovsk-kamchatsky,53.0452,158.6483,-5.67,42,75,2.0,RU,1735616047
90,klyuchi,52.2667,79.1667,-18.23,100,78,2.34,RU,1735616048
91,blairgowrie,56.5916,-3.3405,7.67,100,100,9.57,GB,1735616049
92,agapovka,53.2973,59.1348,-14.44,98,74,3.86,RU,1735616050
93,sao gabriel da cachoeira,-0.1303,-67.0892,22.49,100,94,0.38,BR,1735616051
94,al ghayzah,16.2079,52.176,21.17,71,100,1.38,YE,1735616053
95,mhamid,29.82,-5.72,7.33,56,1,2.06,MA,1735616054
96,subotica,46.1,19.6667,1.16,72,0,2.23,RS,1735616055
97,puerto ayora,-0.7393,-90.3518,23.64,96,16,0.45,EC,1735616057
98,dongola,19.1667,30.4833,12.86,43,81,6.4,SD,1735616058
99,port elizabeth,-33.918,25.5701,20.73,93,40,4.63,ZA,1735616059
100,san mariano,7.5,126.0,27.5,80,91,1.86,PH,1735616060
101,badger,64.8,-147.5333,-26.07,77,0,1.54,US,1735616061
102,rongelap,11.1635,166.8941,27.3,75,10,7.94,MH,1735616062
103,east london,-33.0153,27.9116,23.52,83,75,7.72,ZA,1735616063
104,guerrero negro,27.9769,-114.0611,14.51,90,2,4.56,MX,1735616064
105,avarua,-21.2078,-159.775,27.03,89,75,4.12,CK,1735616065
106,new norfolk,-42.7826,147.0587,22.06,17,57,1.5,AU,1735616066
107,mata-utu,-13.2816,-176.1745,28.53,76,100,4.1,WF,1735616067
108,tutoia,-2.7619,-42.2744,27.24,81,84,5.6,BR,1735616069
109,tanda,26.55,82.65,16.43,61,0,2.41,IN,1735616070
110,aasiaat,68.7098,-52.8699,-22.78,85,2,2.74,GL,1735616071
111,terrace,54.5163,-128.6035,0.95,100,100,2.57,CA,1735616072
112,lompoc,34.6391,-120.4579,11.62,85,0,5.36,US,1735615906
113,khorixas,-20.3667,14.9667,20.34,35,53,3.8,NA,1735616074
114,san rafael,-34.6177,-68.3301,19.96,78,68,2.39,AR,1735616075
115,adrar,20.5022,-10.0711,11.02,30,0,5.04,MR,1735616076
116,ternate,0.8,127.4,28.22,74,100,0.8,ID,1735616077
117,lihue,21.9789,-159.3672,24.77,71,40,6.17,US,1735616078
118,broken hill,-31.95,141.4333,32.98,15,0,6.66,AU,1735616081
119,minas de marcona,-15.2119,-75.1103,16.89,78,100,3.61,PE,1735616082
120,klaeng,12.7797,101.6483,30.05,35,48,2.5,TH,1735616083
121,ghat,24.9647,10.1728,12.2,37,100,3.32,LY,1735616084
122,bhawanipur,27.0179,85.0596,17.69,65,0,2.37,NP,1735616085
123,sao tome,0.3365,6.7273,26.56,83,100,4.06,ST,1735616086
124,kaithal,29.8,76.3833,12.68,40,77,1.91,IN,1735616087
125,cabo san lucas,22.8909,-109.9124,22.17,46,0,4.63,MX,1735615964
126,hilton,43.2881,-77.7933,6.77,77,100,6.26,US,1735616090
127,belmonte,-15.8631,-38.8828,25.52,80,100,2.21,BR,1735616092
128,palpa,-14.5336,-75.1856,21.4,70,100,1.39,PE,1735616093
129,portland,45.5234,-122.6762,6.72,95,100,0.89,US,1735615313
130,piacabucu,-10.4056,-36.4344,25.05,77,75,4.18,BR,1735616095
131,chissamba,-12.1667,17.3333,16.78,96,100,1.5,AO,1735616096
132,tual,-5.6667,132.75,28.35,69,100,1.14,ID,1735616097
133,enewetak,11.3474,162.3373,27.24,79,43,6.42,MH,1735616099
134,ardestan,33.3761,52.3694,5.76,65,73,1.24,IR,1735616100
135,nagqu,31.5,92.0,-9.04,28,4,2.14,CN,1735616101
136,kapa'a,22.0752,-159.319,25.18,78,40,6.17,US,1735616103
137,mbuji-mayi,-6.15,23.6,21.24,95,100,0.71,CD,1735616104
138,bayanhongor,46.7167,100.1167,-16.62,73,100,0.4,MN,1735616105
139,timimoun,29.2639,0.231,8.56,66,0,6.64,DZ,1735616107
140,long beach,33.767,-118.1892,13.07,92,0,1.54,US,1735616108
141,isafjordur,66.0755,-23.124,-7.23,74,100,6.06,IS,1735616109
142,egilsstadir,65.2653,-14.3948,-17.05,78,0,2.57,IS,1735616110
143,roberval,48.5168,-72.2324,4.35,87,75,5.14,CA,1735616111
144,newman,37.3138,-121.0208,8.36,76,100,0.89,US,1735615641
145,happy valley-goose bay,53.3168,-60.3315,0.17,100,100,3.6,CA,1735616113
146,yellowknife,62.456,-114.3525,-17.71,85,100,8.23,CA,1735616114
147,an nuhud,12.7,28.4333,14.61,26,15,8.47,SD,1735616115
148,san antonio de pale,-1.4014,5.6325,26.59,80,100,3.58,GQ,1735616116
149,boundiali,9.5217,-6.4869,19.53,22,17,1.74,CI,1735616118
150,bubaque,11.2833,-15.8333,26.1,71,51,4.66,GW,1735616119
151,barcelos,41.5388,-8.6151,5.16,80,0,2.14,PT,1735616120
152,pudozh,61.8099,36.5345,-1.92,74,100,7.88,RU,1735616121
153,saint-philippe,-21.3585,55.7679,26.36,78,44,2.52,RE,1735616122
154,cartagena,10.3997,-75.5144,26.79,83,20,2.06,CO,1735616123
155,elliot lake,46.3834,-82.6331,0.28,82,100,3.0,CA,1735616124
156,haimen,23.1935,116.6142,19.48,44,0,3.91,CN,1735616125
157,peterhead,57.5058,-1.7981,7.12,94,100,5.53,GB,1735616126
158,brisas de zicatela,15.8369,-97.0419,25.29,88,0,1.03,MX,1735616127
159,northam,51.0333,-4.2167,8.22,93,100,1.79,GB,1735615641
160,bredasdorp,-34.5322,20.0403,17.48,69,6,6.07,ZA,1735616130
161,longyearbyen,78.2186,15.6401,-15.09,61,0,5.14,SJ,1735616131
162,razole,16.4833,81.8333,26.85,64,53,1.97,IN,1735616132
163,kuanda,56.3161,116.0806,-18.43,96,100,0.55,RU,1735616133
164,aykhal,66.0,111.5,-28.52,100,97,1.81,RU,1735616134
165,san patricio,28.017,-97.5169,19.97,59,0,3.02,US,1735616135
166,queenstown,-31.8976,26.8753,21.54,59,100,1.8,ZA,1735615616
167,coquimbo,-29.9533,-71.3436,16.85,83,100,3.09,CL,1735616137
168,turuntayevo,52.2,107.6167,-7.85,84,99,3.46,RU,1735616138
169,namibe,-15.1961,12.1522,22.62,77,97,2.15,AO,1735616140
170,rio grande,-32.035,-52.0986,20.55,83,53,7.2,BR,1735616141
171,moree,-29.4667,149.85,32.99,31,19,1.59,AU,1735615571
172,whitecourt,54.1502,-115.6855,-9.42,85,75,5.14,CA,1735616143
173,boende,-0.2167,20.8667,21.54,81,84,0.97,CD,1735616144
174,tsiombe,-25.3,45.4833,28.36,59,0,3.13,MG,1735616145
175,taoudenni,22.6783,-3.9836,11.43,39,22,4.76,ML,1735616146
176,vadso,70.0744,29.7487,0.09,80,40,5.14,NO,1735616147
177,fortuna,40.5982,-124.1573,6.1,95,20,1.39,US,1735616148
178,port alfred,-33.5906,26.891,21.77,89,100,1.34,ZA,1735616149
179,tan-tan,28.438,-11.1032,11.54,68,0,1.39,MA,1735616151
180,hermanus,-34.4187,19.2345,15.45,76,0,6.33,ZA,1735616152
181,qamdo,31.1667,97.2333,-3.46,24,0,0.62,CN,1735616153
182,tartagal,-22.5164,-63.8013,25.99,48,100,1.58,AR,1735616154
183,udachny,66.4167,112.4,-34.14,100,100,0.35,RU,1735616155
184,st. john's,47.5649,-52.7093,1.1,94,100,2.06,CA,1735616156
185,demre,36.2537,29.9777,7.34,56,0,3.01,TR,1735616157
186,mount isa,-20.7333,139.5,38.87,10,0,3.6,AU,1735615599
187,lazaro cardenas,17.9583,-102.2,21.95,79,51,1.33,MX,1735616159
188,ponnampet,12.15,75.9333,22.5,56,13,3.54,IN,1735616161
189,sao jose dos campos,-23.1794,-45.8869,21.27,83,75,1.54,BR,1735616162
190,villa regina,-39.1,-67.0667,23.32,20,1,0.89,AR,1735616163
191,ust-nera,64.5667,143.2,-29.42,98,100,1.36,RU,1735616164
192,souillac,-20.5167,57.5167,25.21,88,75,0.0,MU,1735616165
193,mandiana,10.6333,-8.6833,19.87,23,27,2.36,GN,1735616166
194,taulaga,-11.0553,-171.0883,29.17,66,78,3.03,AS,1735616167
195,swift current,50.2834,-107.8014,-7.55,93,100,8.23,CA,1735616168
196,dalnegorsk,44.5604,135.5701,-6.57,56,88,3.8,RU,1735616169
197,keflavik,64.0049,-22.5624,-3.76,68,75,7.72,IS,1735616170
198,pisco,-13.7,-76.2167,21.03,83,0,4.63,PE,1735616172
199,itaituba,-4.2761,-55.9836,22.89,99,90,0.96,BR,1735616173
200,le grau-du-roi,43.5388,4.1356,-1.01,93,0,0.51,FR,1735616174
201,walvis bay,-22.9575,14.5053,16.11,93,5,4.0,NA,1735616175
202,zemio,5.0314,25.1361,20.18,28,42,2.23,CF,1735616176
203,asubulaq,49.5583,83.0558,-6.64,93,100,2.22,KZ,1735616177
204,punta arenas,-53.15,-70.9167,12.06,82,100,3.6,CL,1735616178
205,olyokminsk,60.3736,120.4264,-24.37,94,100,1.78,RU,1735616179
206,iskateley,67.6803,53.1512,-1.57,81,94,10.58,RU,1735616180
207,yangshuo,24.7808,110.4897,17.84,35,0,1.97,CN,1735616181
208,la passe,45.5549,-0.8967,3.85,87,0,2.89,FR,1735616183
209,xai-xai,-25.0519,33.6442,24.28,88,25,2.07,MZ,1735616184
210,nhamunda,-2.1861,-56.7131,23.59,98,100,0.15,BR,1735616185
211,kegen,43.0197,79.2203,-9.86,83,100,2.03,KZ,1735616186
212,broome,42.2506,-75.833,5.49,79,100,7.2,US,1735615634
213,zhangjiakou,40.81,114.8794,-5.68,40,0,0.7,CN,1735616189
214,sirte,31.2089,16.5887,13.17,78,94,2.16,LY,1735616190
215,hawaiian paradise park,19.5933,-154.9731,24.39,87,23,1.34,US,1735616191
216,huesca,42.1362,-0.4087,-0.62,100,100,0.51,ES,1735616194
217,yakeshi,49.2833,120.7333,-15.42,85,100,0.8,CN,1735616195
218,arnprior,45.4334,-76.3494,3.65,82,100,5.83,CA,1735616196
219,posto fiscal rolim de moura,-13.0833,-62.2667,23.46,95,100,1.47,BR,1735616197
220,taroudant,30.4703,-8.877,9.93,75,3,1.72,MA,1735616198
221,bandarbeyla,9.4942,50.8122,22.68,67,24,6.2,SO,1735616199
222,selfoss,63.9331,-20.9971,-9.63,81,80,6.96,IS,1735616200
223,fengrun,39.8333,118.1167,2.22,30,0,5.37,CN,1735616201
224,alice springs,-23.7,133.8833,34.75,10,44,4.63,AU,1735616202
225,yendi,9.4427,-0.0099,24.88,23,0,1.22,GH,1735616203
226,n'zeto,-7.2312,12.8666,25.36,91,99,2.03,AO,1735616205
227,port saint john's,-31.6229,29.5448,26.31,84,98,4.21,ZA,1735616206
228,bonthe,7.5264,-12.505,23.17,91,0,1.95,SL,1735616207
229,chui,-33.6971,-53.4616,17.63,92,73,3.09,UY,1735616208
230,mahomet,40.1953,-88.4042,7.75,84,100,5.36,US,1735616209
231,kavieng,-2.5744,150.7967,29.07,69,90,0.38,PG,1735616210
232,suifenhe,44.4,131.1667,-10.11,62,23,4.67,CN,1735616211
233,chipata,-13.6333,32.65,18.9,96,100,0.31,ZM,1735616212
234,fort mcmurray,56.7268,-111.381,-12.23,72,100,5.66,CA,1735616000
235,isla del bosque,22.7333,-105.85,19.16,81,2,0.7,MX,1735616214
236,west end,26.6833,-78.9667,24.13,78,0,7.04,BS,1735616216
237,murudeshwara,14.0943,74.4845,28.91,44,100,3.84,IN,1735616217
238,kataba,8.4604,-0.7732,26.49,36,1,1.6,GH,1735616218
239,crucecita,-28.95,-58.9833,20.53,61,1,2.08,AR,1735616219
240,port lincoln,-34.7333,135.8667,22.85,59,2,4.61,AU,1735616220
241,alofi,-19.0595,-169.9187,27.94,74,75,3.09,NU,1735616221
242,tyukhtet,56.5389,89.3011,-11.4,92,100,4.42,RU,1735616222
243,zheleznogorsk,52.331,35.3711,0.84,96,100,5.53,RU,1735616223
244,turpan,42.9333,89.1667,-5.06,35,84,0.53,CN,1735616225
245,bratsk,56.1325,101.6142,-11.73,85,100,5.27,RU,1735616226
246,pipar,26.3856,73.5378,16.12,36,6,4.0,IN,1735616227
247,tolanaro,-25.0319,46.9987,26.04,83,20,4.12,MG,1735616229
248,ad dabbah,18.05,30.95,12.74,33,11,4.43,SD,1735616230
249,kerikeri,-35.2268,173.9474,19.92,63,23,6.3,NZ,1735616231
250,chamical,-30.36,-66.314,26.36,42,0,4.76,AR,1735616232
251,sabzevar,36.2126,57.6819,1.6,80,40,5.14,IR,1735616233
252,biloela,-24.4167,150.5,33.44,34,3,1.9,AU,1735616235
253,mitu,1.1983,-70.1733,23.33,95,100,0.66,CO,1735616236
254,camiri,-20.05,-63.5167,20.6,59,84,1.7,BO,1735616237
255,dordrecht,51.81,4.6736,4.99,95,97,3.13,NL,1735616238
256,kichmengskiy gorodok,59.9816,45.7854,-2.59,86,100,6.24,RU,1735616239
257,sterlitamak,53.6246,55.9502,-5.59,92,100,8.34,RU,1735616240
258,west greenwich,41.637,-71.66,7.36,74,18,1.34,US,1735616241
259,farafangana,-22.8167,47.8333,25.64,83,18,1.73,MG,1735616242
260,alesund,62.4723,6.1549,1.53,56,75,9.77,NO,1735616243
261,esqueda,30.7167,-109.5833,12.37,18,0,3.25,MX,1735616244
262,malpe,13.35,74.7167,27.62,53,74,2.81,IN,1735616246
263,nadym,65.5333,72.5167,-9.78,93,100,8.15,RU,1735616247
264,lorengau,-2.0226,147.2712,28.53,75,100,0.65,PG,1735616248
265,nuuk,64.1835,-51.7216,-8.4,61,0,2.42,GL,1735616249
266,sitka,57.0531,-135.33,0.94,69,20,3.09,US,1735616250
267,mponela,-13.5319,33.7401,18.57,96,100,0.7,MW,1735616251
268,silver city,32.7701,-108.2803,9.26,26,0,4.02,US,1735616252
269,tiwi,13.4667,123.6167,26.49,71,48,1.74,PH,1735616253
270,mary,37.0,62.5,8.01,67,100,4.27,TM,1735616254
271,naze,28.3667,129.4833,16.51,54,0,8.37,JP,1735616256
272,kismayo,-0.3582,42.5454,26.0,80,12,8.05,SO,1735616257
273,alexandria,31.2156,29.9553,16.11,62,98,8.54,EG,1735616258
274,kodinsk,58.6881,99.1844,-10.19,94,100,3.95,RU,1735616259
275,qaqortoq,60.7167,-46.0333,-15.15,67,16,3.2,GL,1735616260
276,saldanha,-33.0117,17.9442,14.03,82,3,0.96,ZA,1735616261
277,plerin,48.5425,-2.7798,3.55,81,100,5.17,FR,1735616262
278,ouallam,14.3188,2.0866,20.72,22,2,4.16,NE,1735616263
279,sim,54.993,57.6982,-3.19,90,100,6.05,RU,1735616264
280,sos'va,59.1766,61.8558,-6.95,80,100,6.3,RU,1735616265
281,sao felix do xingu,-6.6447,-51.995,22.34,99,62,0.3,BR,1735616267
282,la maddalena,41.2142,9.4083,10.58,74,0,1.16,IT,1735616268
283,idri,27.5,13.2667,10.3,67,98,4.93,LY,1735616269
284,altai,46.3722,96.2583,-11.82,65,61,1.81,MN,1735616270
285,greymouth,-42.4667,171.2,20.34,53,59,2.48,NZ,1735616271
286,mandera,3.9366,41.867,24.41,45,56,2.71,KE,1735616272
287,smithers,54.7804,-127.1743,-2.82,100,100,0.0,CA,1735616273
288,thinadhoo,0.5333,72.9333,26.7,70,72,3.96,MV,1735616274
289,al hudaydah,14.7978,42.9545,24.13,81,7,2.25,YE,1735616277
290,pokaran,26.9167,71.9167,16.45,33,2,3.36,IN,1735616278
291,sol'-iletsk,51.1631,54.9918,-9.93,98,84,4.07,RU,1735616279
292,sankt johann in tirol,47.5233,12.4232,-2.84,94,35,2.38,AT,1735616280
293,noumea,-22.2763,166.4572,24.65,67,21,7.19,NC,1735616281
294,las tablas,7.7667,-80.2833,25.65,99,100,1.39,PA,1735616282
295,afaahiti,-17.75,-149.2833,26.49,76,100,1.76,PF,1735616283
296,ende,-8.8432,121.6623,28.24,80,100,1.42,ID,1735616284
297,al hawatah,13.4167,34.6333,21.66,56,0,5.3,SD,1735616285
298,axim,4.8699,-2.2405,26.04,86,84,1.98,GH,1735616287
299,hasaki,35.7333,140.8333,13.63,54,88,9.41,JP,1735616288
300,okha,53.5739,142.9478,-20.57,97,34,3.66,RU,1735616289
301,arkhangel'sk,64.5401,40.5433,-3.94,100,100,3.0,RU,1735616290
302,touros,-5.1989,-35.4608,26.21,79,72,5.26,BR,1735616291
303,torghay,49.6339,63.4981,-15.58,97,12,0.9,KZ,1735616292
304,essaouira,31.5125,-9.77,8.72,87,20,2.06,MA,1735616293
305,lazarevskoye,43.9061,39.3331,6.57,76,58,2.25,RU,1735616294
306,nar'yan-mar,67.6713,53.087,-1.63,81,92,10.64,RU,1735616295
307,flying fish cove,-10.4217,105.6791,25.82,88,75,5.14,CX,1735616298
308,berdigestyakh,62.0989,126.6992,-43.22,99,61,0.9,RU,1735616299
309,voi,-3.3945,38.563,21.79,92,70,1.45,KE,1735616300
310,antsiranana,-12.2787,49.2917,24.42,88,75,0.0,MG,1735616301
311,magadan,59.5667,150.8,-20.26,79,85,2.54,RU,1735616302
312,nemuro,43.3236,145.575,-0.76,92,100,11.64,JP,1735616303
313,pembroke,45.8168,-77.1162,2.32,85,100,5.4,CA,1735616304
314,nyurba,63.2842,118.3319,-36.97,98,99,1.61,RU,1735616305
315,rincon,32.296,-81.2354,11.98,82,0,0.0,US,1735616307
316,malakal,9.5334,31.6605,23.22,27,71,4.69,SS,1735616308
317,hammerfest,70.6634,23.6821,0.25,100,40,1.03,NO,1735616309
318,tazovsky,67.4667,78.7,-10.49,93,100,6.62,RU,1735616310
319,itoman,26.1247,127.6694,20.22,63,75,9.77,JP,1735616311
320,puerto baquerizo moreno,-0.9,-89.6,23.04,83,4,2.9,EC,1735616312
321,tazacorte,28.629,-17.9293,17.54,67,40,4.02,ES,1735616313
322,shanghai,31.2222,121.4581,9.92,46,0,3.0,CN,1735616185
323,as saffaniyah,27.9708,48.73,16.67,51,100,5.39,SA,1735616315
324,mohr,54.3528,9.7167,7.2,95,100,10.29,DE,1735616316
325,sinabang,2.4803,96.3801,28.37,73,97,0.41,ID,1735616318
326,abepura,-2.6333,140.5833,32.45,62,20,1.54,ID,1735616319
327,alupka,44.4167,34.05,6.17,81,6,4.48,UA,1735616320
328,lady frere,-31.7031,27.2329,21.74,66,100,3.0,ZA,1735616321
329,whakatane,-37.9585,176.9854,20.84,86,100,1.79,NZ,1735616322
330,yunyang,33.4474,112.7142,9.35,22,0,4.93,CN,1735616323
331,papao,-17.75,-149.55,29.82,73,100,0.88,PF,1735616324
332,aioun,16.6614,-9.6149,17.42,22,0,5.54,MR,1735616325
333,kasane,-17.8167,25.15,21.05,100,100,1.03,BW,1735616326
334,nema,57.5067,50.5011,0.65,85,100,6.53,RU,1735616328
335,hadzici,43.8222,18.2067,-5.37,100,100,2.06,BA,1735616329
336,cole harbour,44.6724,-63.4751,9.66,97,100,3.13,CA,1735616330
337,suva,-18.1416,178.4415,29.71,51,20,4.12,FJ,1735616331
338,howard springs,-12.497,131.047,33.82,65,96,1.26,AU,1735616332
339,mariental,-24.6333,17.9667,20.78,32,62,7.25,NA,1735616333
340,boguchany,58.3814,97.4531,-9.39,93,100,3.92,RU,1735616334
341,dali,25.7,100.1833,13.67,39,0,2.15,CN,1735616337
342,conception bay south,47.4999,-52.9981,0.97,95,100,1.38,CA,1735616338
343,cockburn town,21.4612,-71.1419,24.73,73,81,6.93,TC,1735616339
344,nova xavantina,-14.6667,-52.35,21.69,98,100,1.5,BR,1735616340
345,cannonvale,-20.2833,148.7,29.66,68,8,3.11,AU,1735616341
346,ilabaya,-17.4208,-70.5133,18.32,75,100,0.62,PE,1735616342
347,jalapa,19.5333,-96.9167,15.86,71,0,2.29,MX,1735616055
348,tidjikja,18.5564,-11.4271,16.09,23,0,6.41,MR,1735616344
349,kyzyl-mazhalyk,51.1333,90.6,-18.44,94,97,0.62,RU,1735616345
350,burgersdorp,-30.9977,26.3286,19.16,75,100,1.71,ZA,1735616346
351,al jawf,29.5,38.75,5.57,74,5,1.56,SA,1735616348
352,arraial do cabo,-22.9661,-42.0278,23.08,89,1,2.33,BR,1735616349
353,san jose,37.3394,-121.895,10.68,74,40,0.0,US,1735615822
354,pacific grove,36.6177,-121.9166,11.35,91,0,2.24,US,1735616351
355,sola,-13.8833,167.55,32.37,70,75,1.03,VU,1735616352
356,margate,51.3813,1.3862,8.26,89,100,0.45,GB,1735616353
357,alliston,44.1501,-79.8663,3.18,81,99,4.12,CA,1735616354
358,songyuan,45.1171,124.8568,-8.57,71,29,4.87,CN,1735616355
359,barra dos coqueiros,-10.9089,-37.0386,27.01,74,75,4.12,BR,1735616356
360,jayapura,-2.5333,140.7,32.66,63,83,1.35,ID,1735616359
361,kavaratti,10.5669,72.642,28.36,70,18,4.72,IN,1735616360
362,bluefields,12.0137,-83.7635,23.81,94,100,2.55,NI,1735616362
363,timmins,48.4669,-81.3331,-1.1,93,100,4.63,CA,1735616363
364,laguna,38.421,-121.4238,8.34,78,0,0.0,US,1735616364
365,lagoa,39.05,-27.9833,16.88,87,100,14.02,PT,1735616366
366,sakakah,29.9697,40.2064,3.76,70,12,2.43,SA,1735616367
367,terra santa,-2.1042,-56.4869,23.62,96,100,1.07,BR,1735616368
368,komsomol'skiy,43.9783,46.6985,0.18,75,69,2.8,RU,1735616369
369,kapuskasing,49.4169,-82.4331,-0.95,100,100,5.66,CA,1735616370
370,nova vicosa,-17.8919,-39.3719,24.06,91,100,3.51,BR,1735616371
371,novodvinsk,64.4165,40.8122,-4.14,95,100,5.72,RU,1735616372
372,vizinga,61.0749,50.1031,-3.37,85,80,5.49,RU,1735616373
373,richards bay,-28.783,32.0377,24.67,85,95,5.54,ZA,1735616374
374,wuda,39.4994,106.7117,-0.99,30,0,1.0,CN,1735616375
375,grand-bassam,5.2118,-3.7388,27.98,85,28,2.68,CI,1735616377
376,lumajang,-8.1335,113.2248,29.48,70,98,3.49,ID,1735616198
377,colonia,50.9333,6.95,0.54,90,100,3.6,DE,1735616379
378,kaduy,59.2,37.15,-2.32,77,40,5.81,RU,1735616380
379,ormara,25.2088,64.6357,19.85,67,29,1.64,PK,1735616381
380,garden city,42.3256,-83.331,3.36,87,20,3.6,US,1735616326
381,ola,59.5833,151.2833,-20.5,83,65,3.25,RU,1735616383
382,arno,60.1167,18.6333,-1.06,63,35,3.08,SE,1735616384
383,puerto leguizamo,-0.1934,-74.7819,22.3,99,81,0.56,CO,1735616385
384,multai,21.7667,78.25,19.79,64,0,0.69,IN,1735616386
385,caranguejeira,39.7462,-8.7074,4.6,94,5,0.51,PT,1735616387
386,kuching,1.55,110.3333,31.68,77,40,2.06,MY,1735616389
387,maun,-19.9833,23.4167,21.98,100,75,1.54,BW,1735616390
388,malango,-2.9627,119.9001,26.47,76,90,0.91,ID,1735616391
389,bamboo flat,11.7,92.7167,29.05,79,75,3.09,IN,1735616392
390,ilulissat,69.2167,-51.1,-10.99,44,0,7.72,GL,1735616393
391,sunne,59.8376,13.143,-0.68,48,92,2.89,SE,1735616394
392,tocoa,15.6833,-86.0,21.97,100,94,0.39,HN,1735616395
393,jiayuguan,39.8167,98.3,-1.58,24,25,4.09,CN,1735616396
394,ceeldheer,3.8488,47.1806,24.31,76,24,6.81,SO,1735616397
395,muisne,0.6,-80.0333,24.43,85,95,1.67,EC,1735616398
396,villa la angostura,-40.7617,-71.6463,4.91,97,78,3.58,AR,1735616400
397,kusheriki,10.5328,6.4422,23.06,20,18,3.88,NG,1735616401
398,sitionuevo,10.7774,-74.7205,27.09,83,20,2.57,CO,1735616402
399,gremyachevo,54.7503,38.5869,-0.04,93,100,4.06,RU,1735616403
400,takoradi,4.8845,-1.7554,26.27,86,79,1.54,GH,1735616404
401,dauphin,51.1494,-100.0502,-5.92,79,100,6.69,CA,1735616405
402,at taj,24.2049,23.2857,8.72,76,91,3.65,LY,1735616406
403,xilin hot,43.9667,116.0333,-9.53,74,0,8.5,CN,1735616407
404,sibay,52.7181,58.6658,-7.58,92,25,4.27,RU,1735616408
405,aktobe,50.2797,57.2072,-3.95,100,75,2.0,KZ,1735616409
406,saint-pierre,-21.3393,55.4781,26.82,61,0,2.06,RE,1735616412
407,fort-shevchenko,44.5086,50.263,2.83,73,100,3.06,KZ,1735616413
408,chagoda,59.164,35.3285,-2.64,83,6,5.47,RU,1735616414
409,yulinshi,38.2906,109.7494,-1.84,36,0,1.69,CN,1735616415
410,porto-vecchio,41.591,9.2795,-0.19,100,100,1.54,FR,1735616416
411,nyagan,62.1406,65.3936,-5.0,89,100,7.1,RU,1735616417
412,laishevo,55.4046,49.5504,-2.88,97,100,7.99,RU,1735616418
413,regina,50.4501,-104.6178,-6.94,79,100,7.2,CA,1735616167
414,remire-montjoly,4.9167,-52.2667,24.02,100,40,1.54,GF,1735616421
415,naryn,41.4287,75.9911,-13.55,71,35,2.85,KG,1735616422
416,trairi,-3.2778,-39.2689,26.96,76,60,4.98,BR,1735616423
417,katsuura,35.1333,140.3,14.45,57,100,13.7,JP,1735616424
418,kirakira,-10.4544,161.9205,29.88,73,80,2.72,SB,1735616425
419,palmer,42.1584,-72.3287,7.37,63,40,3.09,US,1735616426
420,embi,48.8264,58.1442,-6.77,100,100,1.77,KZ,1735616427
421,fene,43.45,-8.15,4.75,84,5,2.81,ES,1735616428
422,nouadhibou,20.931,-17.0347,19.99,32,0,10.8,MR,1735616429
423,parksville,49.3163,-124.3195,5.8,99,95,3.09,CA,1735616141
424,modimolle,-24.7,28.4,20.76,84,92,1.39,ZA,1735616432
425,kyren,51.6828,102.1408,-11.82,73,100,0.56,RU,1735616433
426,north elba,44.2434,-73.9543,0.25,96,100,5.6,US,1735616434
427,solleftea,63.1667,17.2667,-5.08,79,12,5.87,SE,1735616435
428,pingnan,23.5543,110.3976,20.25,37,0,2.31,CN,1735616436
429,de forest,43.2478,-89.3437,-0.05,91,100,0.0,US,1735616437
430,adh dhibiyah,24.5014,45.9686,14.34,63,100,3.61,SA,1735616438
431,dazhou,31.2159,107.5009,10.55,64,46,0.65,CN,1735616439
432,al bawiti,28.3492,28.8659,8.74,67,23,3.57,EG,1735616440
433,geraldton,-28.7667,114.6,30.23,58,23,5.66,AU,1735616442
434,usogorsk,63.4106,48.6872,-4.55,92,100,5.59,RU,1735616443
435,zhanaozen,43.3,52.8,-0.48,81,23,2.35,KZ,1735616444
436,mirny,62.5353,113.9611,-24.71,97,100,0.42,RU,1735616445
437,mukalla,14.5425,49.1242,22.1,70,56,2.21,YE,1735616446
438,deqen,29.9618,90.7188,-3.45,25,0,1.14,CN,1735616447
439,colonia menno,-22.3667,-59.8167,25.93,37,17,3.86,PY,1735616448
440,taltal,-25.4,-70.4833,19.1,79,0,1.33,CL,1735616449
441,palu,-0.8917,119.8707,34.22,52,75,2.6,ID,1735616450
442,timbuktu,16.7735,-3.0074,15.56,21,0,5.19,ML,1735616451
443,zaranj,30.9667,61.8833,13.5,17,100,0.59,AF,1735616328
444,gadzhiyevo,69.2551,33.3362,1.06,73,100,12.07,RU,1735616454
445,sebezh,56.2955,28.4654,0.68,100,100,2.02,RU,1735616455
446,illapel,-31.6308,-71.1653,17.03,68,0,1.41,CL,1735616456
447,rockland,41.1668,-74.0496,8.87,70,36,4.09,US,1735616457
448,coahuayana de hidalgo,18.7,-103.6583,20.37,92,92,1.88,MX,1735616458
449,la ronge,55.1001,-105.2842,-11.86,79,100,6.69,CA,1735616459
450,acapulco de juarez,16.8634,-99.8901,26.9,74,40,2.57,MX,1735616430
451,toliara,-23.35,43.6667,27.27,73,3,1.48,MG,1735616461
452,boa vista,2.8197,-60.6733,28.99,61,20,5.14,BR,1735616462
453,slave lake,55.2834,-114.769,-11.01,85,75,6.69,CA,1735616464
454,lianzhou,24.7811,112.3825,18.48,32,0,2.84,CN,1735616465
455,segovia,41.1667,-4.0,0.83,62,0,1.53,ES,1735616466
456,vila franca do campo,37.7167,-25.4333,18.27,99,100,7.82,PT,1735616467
457,balykshi,47.0667,51.8667,-3.0,100,100,1.0,KZ,1735616469
458,luanda,-8.8368,13.2343,26.0,89,75,2.57,AO,1735616470
459,pandan,14.0453,124.1694,28.5,78,67,4.18,PH,1735616472
460,villa gesell,-37.2639,-56.973,17.78,83,39,8.58,AR,1735616473
461,asbe teferi,9.0833,40.8667,13.01,59,64,1.66,ET,1735616474
462,vorkuta,67.5,64.0,-7.08,83,100,7.18,RU,1735616475
463,masuguru,-11.3667,38.4167,23.62,93,100,1.21,TZ,1735616476
464,hadibu,12.65,54.0333,23.16,72,73,3.06,YE,1735616477
465,kargasok,59.0556,80.8572,-11.79,90,19,5.26,RU,1735616478
466,balakovo,52.0278,47.8007,-4.23,94,69,5.42,RU,1735616479
467,merizo village,13.2658,144.6691,29.43,85,82,7.92,GU,1735616480
468,nungwi,-5.7265,39.2987,27.58,82,100,8.08,TZ,1735616481
469,ancud,-41.8697,-73.8203,10.1,74,12,3.29,CL,1735616483
470,neryungri,56.6709,124.6491,-16.8,94,100,0.71,RU,1735616484
471,prince rupert,54.3161,-130.3201,4.83,96,100,6.69,CA,1735616255
472,dapa,9.7594,126.0531,27.99,71,81,2.73,PH,1735616486
473,ishigaki,24.3448,124.1572,20.07,64,75,7.72,JP,1735616487
474,salekhard,66.53,66.6019,-6.09,95,100,5.95,RU,1735616488
475,suntar,62.1444,117.6319,-33.15,97,100,0.93,RU,1735616489
476,nejo,9.5,35.5,12.45,68,6,1.32,ET,1735616490
477,vinzili,56.9594,65.7708,-11.35,89,68,5.28,RU,1735616491
478,roma,43.2128,-75.4557,5.94,76,100,6.17,US,1735616492
479,canoinhas,-26.1772,-50.39,16.42,98,70,1.64,BR,1735616494
480,taiobeiras,-15.8078,-42.2331,18.37,95,99,2.37,BR,1735616495
481,road town,18.4167,-64.6167,24.68,61,100,6.59,VG,1735616497
482,igarka,67.4667,86.5833,-18.46,95,100,8.03,RU,1735616498
483,plastun,44.7561,136.2939,-4.43,48,88,2.35,RU,1735616499
484,simdega,22.6167,84.5167,19.87,43,0,0.48,IN,1735616502
485,pasuquin,18.3328,120.6177,28.97,79,40,5.66,PH,1735616503
486,praia da vitoria,38.7333,-27.0667,17.14,88,75,8.69,PT,1735616504
487,san ignacio de velasco,-16.3667,-60.95,22.2,59,96,1.59,BO,1735616505
488,lufilufi,-13.8745,-171.5986,28.93,73,100,5.17,WS,1735616506
489,mildura,-34.2,142.15,33.37,21,0,4.72,AU,1735616507
490,kingston,17.997,-76.7936,25.53,78,20,3.09,JM,1735616508
491,north battleford,52.7834,-108.2847,-10.95,85,100,3.7,CA,1735616509
492,ramanuj ganj,23.8,83.7,16.74,43,0,1.59,IN,1735616510
493,proletarsk,46.7031,41.7192,-1.48,76,49,3.3,RU,1735616511
494,howrah,22.5892,88.3103,19.0,77,40,3.09,IN,1735616513
495,neiafu,-18.65,-173.9833,28.38,78,75,4.12,TO,1735616514
496,weno,7.4515,151.8468,30.97,74,40,4.63,FM,1735616515
497,nueva gerona,21.8833,-82.8,24.12,82,44,2.02,CU,1735616516
498,pula,44.8683,13.8481,1.31,100,0,1.54,HR,1735616517
499,diamantino,-14.4086,-56.4461,21.83,95,100,3.7,BR,1735616518
500,pursat,12.3333,103.6667,26.68,48,2,1.69,KH,1735616519
501,kamina,-8.7386,24.9906,17.78,96,100,1.09,CD,1735616520
502,saint-joseph,-21.3667,55.6167,27.21,77,22,1.29,RE,1735616521
503,blois,47.5833,1.3333,1.71,100,9,2.67,FR,1735616522
504,scottburgh,-30.2867,30.7532,24.21,88,98,2.42,ZA,1735616524
505,ponta delgada,37.7333,-25.6667,18.44,88,20,8.23,PT,1735616525
506,island harbour,50.724,-1.2758,9.45,75,100,0.45,GB,1735616526
507,fort riley north,39.1108,-96.8139,4.42,93,100,3.09,US,1735616528
508,corralejo,28.7424,-13.8684,17.74,70,0,5.13,ES,1735616529
509,thunder bay,48.4001,-89.3168,-1.01,80,100,4.12,CA,1735616530
510,ndioum,16.5129,-14.6471,23.04,25,26,4.42,SN,1735616531
511,sandnessjoen,66.0217,12.6316,-1.42,91,100,12.54,NO,1735616532
512,bengkulu,-3.8004,102.2655,28.78,69,69,2.69,ID,1735616534
513,copala,16.65,-98.9833,23.54,73,45,1.68,MX,1735616535
514,kyabe,9.4515,18.9449,22.87,17,9,3.23,TD,1735616536
515,el amria,35.5244,-1.0158,9.14,45,86,2.2,DZ,1735616537
516,necochea,-38.5473,-58.7368,19.64,53,99,7.44,AR,1735616538
517,olinda,-8.0089,-34.8553,27.85,74,40,3.6,BR,1735616539
518,vrontados,38.4089,26.1328,7.65,77,0,5.93,GR,1735616540
519,nago,26.5881,127.9761,17.81,59,98,6.85,JP,1735616541
520,nichinan,31.6,131.3667,14.05,49,5,6.32,JP,1735616542
521,floro,61.5996,5.0328,-1.02,69,40,6.69,NO,1735616543
522,kharp,66.8014,65.8081,-9.3,96,100,2.2,RU,1735616545
523,kingscliff,-28.2667,153.5667,28.89,61,20,7.72,AU,1735616546
524,prabumulih,-3.45,104.25,27.69,80,97,2.41,ID,1735616547
525,anderson,34.5334,-82.6499,9.46,90,0,0.0,US,1735616548
526,nova olimpia,-14.7972,-57.2881,23.28,88,100,2.34,BR,1735616549
527,warri,5.5167,5.75,24.09,91,78,0.83,NG,1735616550
528,prince albert,53.2001,-105.7677,-9.03,73,100,5.14,CA,1735616551
529,saint-felicien,48.6501,-72.4491,4.38,87,75,5.14,CA,1735616552
530,amursk,50.2261,136.8994,-20.84,89,65,1.21,RU,1735616553
531,baiyin,36.5583,104.2081,-1.71,43,0,2.75,CN,1735616554
532,jebrail,39.3992,47.0283,3.57,96,100,1.63,AZ,1735616555
533,iskushuban,10.2837,50.23,19.03,75,29,1.66,SO,1735616557
534,luderitz,-26.6481,15.1594,16.14,92,0,4.82,NA,1735616558
535,seminole,28.7086,-81.2081,19.67,85,39,1.8,US,1735616559
536,raahe,64.6833,24.4833,-2.65,68,100,9.55,FI,1735616560
537,holualoa,19.6228,-155.9522,24.91,80,0,4.63,US,1735616561
538,obo,5.3998,26.4869,21.6,26,19,2.97,CF,1735616562
539,labrador city,52.9463,-66.9114,0.95,98,100,17.88,CA,1735616563
540,borba,-4.3878,-59.5939,23.71,97,99,1.06,BR,1735616564
541,san carlos del zulia,9.0,-71.9135,23.48,87,79,0.21,VE,1735616565
542,den burg,53.0542,4.7972,7.98,87,75,7.72,NL,1735616566
543,chernyanka,50.9409,37.8069,0.64,91,100,4.22,RU,1735616568
544,inhambane,-23.865,35.3833,26.98,81,6,2.19,MZ,1735616569
545,kodinar,20.7903,70.7031,22.98,45,0,2.56,IN,1735616570
546,saacow,1.6279,42.4407,23.54,80,2,6.25,SO,1735616571
547,vilyuysk,63.7553,121.6247,-47.5,99,75,1.06,RU,1735616573
548,mutoko,-17.397,32.2268,18.36,92,100,0.71,ZW,1735616574
549,issia,6.4922,-6.5856,20.7,89,6,0.37,CI,1735616575
550,viitasaari,63.0667,25.8667,-5.32,72,64,7.41,FI,1735616576
551,zaragoza,41.6561,-0.8773,2.25,86,100,1.34,ES,1735616578
552,bom jesus,-9.0744,-44.3586,21.87,94,62,1.8,BR,1735616579
553,palikir - national government center,6.9248,158.1611,28.47,84,75,3.6,FM,1735616580
554,tarawa,1.419,172.984,30.05,79,20,4.12,KI,1735616581
555,westport,41.1415,-73.3579,9.62,65,0,3.6,US,1735616582
556,umba,66.6871,34.3429,-7.59,94,83,2.47,RU,1735616583
557,chilmari,25.5559,89.6715,20.73,54,0,3.65,BD,1735616584
558,kidal,18.4411,1.4078,17.76,16,0,3.6,ML,1735616585
559,nizhneudinsk,54.9076,99.0276,-8.4,70,100,5.52,RU,1735616586
560,andergrove,-21.0833,149.1833,28.35,70,3,3.65,AU,1735616587
561,urangan,-25.3,152.9,24.97,77,18,5.09,AU,1735616589
562,ataq,14.5377,46.8319,15.87,84,6,3.31,YE,1735616590
563,robore,-18.3333,-59.75,22.65,56,5,1.59,BO,1735616591
564,cassilandia,-19.1133,-51.7342,21.43,94,2,0.97,BR,1735616592
565,fukuecho,32.6881,128.8419,11.2,46,20,7.2,JP,1735616593
566,vernon,50.2581,-119.2691,2.64,93,100,1.03,CA,1735616422
567,shiguai,40.7058,110.2856,-5.58,40,1,0.19,CN,1735616595
568,olesnica,51.2134,17.3899,3.14,81,86,2.98,PL,1735616596
569,kirensk,57.7853,108.1119,-10.17,94,100,3.04,RU,1735616597
570,novokuznetsk,53.7557,87.1099,-18.09,100,82,0.81,RU,1735616417
571,nola,40.922,14.5329,8.35,80,0,0.68,IT,1735616600
572,bellampalli,19.0558,79.493,24.18,52,6,3.22,IN,1735616601
573,ta`u,-14.2336,-169.5144,28.96,66,100,2.25,AS,1735616602
574,katsuren-haebaru,26.3369,127.8719,20.22,57,75,6.17,JP,1735616603
575,sokcho,38.2083,128.5911,5.34,20,0,5.14,KR,1735616604
576,qujing,25.4833,103.7833,7.89,84,100,1.78,CN,1735616605
577,bada,51.392,109.8717,-10.9,87,100,3.55,RU,1735616606
578,maracacume,-2.0428,-45.9592,22.98,97,24,1.35,BR,1735616607
